[
  {
    "type": "small_airport",
    "name": "Catoca Airport",
    "gps_code": "AO-0001",
    "freq": "",
    "Lat": -9.431359,
    "Lon": 20.311557,
    "Ele": 1066.2
  },
  {
    "type": "small_airport",
    "name": "Nancova Airport",
    "gps_code": "AO-0002",
    "freq": "",
    "Lat": -16.39637,
    "Lon": 18.978764,
    "Ele": 0.0
  },
  {
    "type": "small_airport",
    "name": "Rito Airport",
    "gps_code": "AO-0003",
    "freq": "",
    "Lat": -16.689392,
    "Lon": 19.083767,
    "Ele": 0.0
  },
  {
    "type": "small_airport",
    "name": "Coemba Airport",
    "gps_code": "AO-0004",
    "freq": "",
    "Lat": -12.143704,
    "Lon": 18.085363,
    "Ele": 0.0
  },
  {
    "type": "small_airport",
    "name": "Andulo Airport",
    "gps_code": "AO-0005",
    "freq": "",
    "Lat": -11.4723,
    "Lon": 16.710899,
    "Ele": 0.0
  },
  {
    "type": "small_airport",
    "name": "Caluquembe Airport",
    "gps_code": "AO-0006",
    "freq": "",
    "Lat": -13.775546,
    "Lon": 14.694916,
    "Ele": 0.0
  },
  {
    "type": "small_airport",
    "name": "Cuvelai Airport",
    "gps_code": "AO-0007",
    "freq": "",
    "Lat": -15.668575,
    "Lon": 15.805654,
    "Ele": 0.0
  },
  {
    "type": "small_airport",
    "name": "Cuangar Airport",
    "gps_code": "AO-0008",
    "freq": "",
    "Lat": -17.597122,
    "Lon": 18.63437,
    "Ele": 0.0
  },
  {
    "type": "small_airport",
    "name": "Mucusso Airport",
    "gps_code": "AO-0011",
    "freq": "",
    "Lat": -18.020826,
    "Lon": 21.437053,
    "Ele": 0.0
  },
  {
    "type": "small_airport",
    "name": "Jamba Airport",
    "gps_code": "AO-0012",
    "freq": "",
    "Lat": -17.454765,
    "Lon": 22.607245,
    "Ele": 0.0
  },
  {
    "type": "small_airport",
    "name": "Mavinga Airport",
    "gps_code": "AO-0016",
    "freq": "",
    "Lat": -15.789222,
    "Lon": 20.368971,
    "Ele": 0.0
  },
  {
    "type": "small_airport",
    "name": "Ninda Airport",
    "gps_code": "AO-0017",
    "freq": "",
    "Lat": -14.80893,
    "Lon": 21.376961,
    "Ele": 0.0
  },
  {
    "type": "small_airport",
    "name": "Lucusse Airport",
    "gps_code": "AO-0019",
    "freq": "",
    "Lat": -12.521974,
    "Lon": 20.805726,
    "Ele": 0.0
  },
  {
    "type": "small_airport",
    "name": "Cassamba Airport",
    "gps_code": "AO-0020",
    "freq": "",
    "Lat": -13.139351,
    "Lon": 20.300824,
    "Ele": 0.0
  },
  {
    "type": "small_airport",
    "name": "Calunda Airport",
    "gps_code": "AO-0021",
    "freq": "",
    "Lat": -12.126335,
    "Lon": 23.478615,
    "Ele": 0.0
  },
  {
    "type": "small_airport",
    "name": "Lóvua Airport",
    "gps_code": "AO-0022",
    "freq": "",
    "Lat": -11.556065,
    "Lon": 23.553667,
    "Ele": 0.0
  },
  {
    "type": "small_airport",
    "name": "Luacano Airport",
    "gps_code": "AO-0023",
    "freq": "",
    "Lat": -11.209962,
    "Lon": 21.648705,
    "Ele": 0.0
  },
  {
    "type": "small_airport",
    "name": "Lumeje Airport",
    "gps_code": "AO-0024",
    "freq": "",
    "Lat": -11.564598,
    "Lon": 20.785903,
    "Ele": 0.0
  },
  {
    "type": "small_airport",
    "name": "Chipato Airport",
    "gps_code": "AO-0025",
    "freq": "",
    "Lat": -10.701382,
    "Lon": 22.160291,
    "Ele": 0.0
  },
  {
    "type": "small_airport",
    "name": "Camacupa Airport",
    "gps_code": "AO-0027",
    "freq": "",
    "Lat": -12.021878,
    "Lon": 17.453693,
    "Ele": 0.0
  },
  {
    "type": "small_airport",
    "name": "Luando Airport",
    "gps_code": "AO-0028",
    "freq": "",
    "Lat": -11.62444,
    "Lon": 18.46969,
    "Ele": 0.0
  },
  {
    "type": "small_airport",
    "name": "Quirima Airport",
    "gps_code": "AO-0029",
    "freq": "",
    "Lat": -10.902645,
    "Lon": 18.060368,
    "Ele": 0.0
  },
  {
    "type": "small_airport",
    "name": "Dala Airport",
    "gps_code": "AO-0030",
    "freq": "",
    "Lat": -11.040653,
    "Lon": 20.208268,
    "Ele": 0.0
  },
  {
    "type": "small_airport",
    "name": "Longa Airport",
    "gps_code": "AO-0032",
    "freq": "",
    "Lat": -14.610741,
    "Lon": 18.487945,
    "Ele": 0.0
  },
  {
    "type": "small_airport",
    "name": "Cuchi Airport",
    "gps_code": "AO-0033",
    "freq": "",
    "Lat": -14.64987,
    "Lon": 16.885391,
    "Ele": 0.0
  },
  {
    "type": "small_airport",
    "name": "Mutumbo Airport",
    "gps_code": "AO-0034",
    "freq": "",
    "Lat": -13.179982,
    "Lon": 17.394938,
    "Ele": 1454.8
  },
  {
    "type": "small_airport",
    "name": "Miguel Airport",
    "gps_code": "AO-0035",
    "freq": "",
    "Lat": -15.704318,
    "Lon": 17.452439,
    "Ele": 0.0
  },
  {
    "type": "small_airport",
    "name": "Calai Airport",
    "gps_code": "AO-0037",
    "freq": "",
    "Lat": -17.878868,
    "Lon": 19.782762,
    "Ele": 0.0
  },
  {
    "type": "small_airport",
    "name": "Chitado Airport",
    "gps_code": "AO-0038",
    "freq": "",
    "Lat": -17.320733,
    "Lon": 13.923845,
    "Ele": 0.0
  },
  {
    "type": "small_airport",
    "name": "Alto Dondo Airport",
    "gps_code": "AO-0039",
    "freq": "",
    "Lat": -9.675516,
    "Lon": 14.464999,
    "Ele": 0.0
  },
  {
    "type": "small_airport",
    "name": "Mussende Airport",
    "gps_code": "AO-0040",
    "freq": "",
    "Lat": -10.520306,
    "Lon": 15.99677,
    "Ele": 0.0
  },
  {
    "type": "small_airport",
    "name": "Capenda Camulemba Airport",
    "gps_code": "AO-0041",
    "freq": "",
    "Lat": -9.415833,
    "Lon": 18.434794,
    "Ele": 0.0
  },
  {
    "type": "small_airport",
    "name": "Xassengue Airport",
    "gps_code": "AO-0042",
    "freq": "",
    "Lat": -10.461305,
    "Lon": 18.535527,
    "Ele": 0.0
  },
  {
    "type": "small_airport",
    "name": "Balombo Airport",
    "gps_code": "AO-0043",
    "freq": "",
    "Lat": -12.357134,
    "Lon": 14.77923,
    "Ele": 0.0
  },
  {
    "type": "small_airport",
    "name": "Cuima Airport",
    "gps_code": "AO-0044",
    "freq": "",
    "Lat": -13.458467,
    "Lon": 15.833762,
    "Ele": 0.0
  },
  {
    "type": "small_airport",
    "name": "Cubati Airport",
    "gps_code": "AO-0045",
    "freq": "",
    "Lat": -15.333917,
    "Lon": 16.851872,
    "Ele": 1256.1
  },
  {
    "type": "small_airport",
    "name": "Capelongo Airport",
    "gps_code": "AO-0046",
    "freq": "",
    "Lat": -14.457297,
    "Lon": 16.296202,
    "Ele": 0.0
  },
  {
    "type": "small_airport",
    "name": "Chitembo Airport",
    "gps_code": "AO-0047",
    "freq": "",
    "Lat": -13.509385,
    "Lon": 16.74928,
    "Ele": 1643.8
  },
  {
    "type": "small_airport",
    "name": "Cuito Cuanavale South Airport",
    "gps_code": "AO-0048",
    "freq": "",
    "Lat": -15.711983,
    "Lon": 18.651003,
    "Ele": 0.0
  },
  {
    "type": "small_airport",
    "name": "Mussuma Airport",
    "gps_code": "AO-0049",
    "freq": "",
    "Lat": -14.204202,
    "Lon": 21.909971,
    "Ele": 1059.8
  },
  {
    "type": "small_airport",
    "name": "Mumbué Airport",
    "gps_code": "AO-0050",
    "freq": "",
    "Lat": -13.900039,
    "Lon": 17.300036,
    "Ele": 1522.5
  },
  {
    "type": "small_airport",
    "name": "Cubango River Airport",
    "gps_code": "AO-0051",
    "freq": "",
    "Lat": -13.333366,
    "Lon": 16.414531,
    "Ele": 1546.3
  },
  {
    "type": "small_airport",
    "name": "Chinhama Airport",
    "gps_code": "AO-0052",
    "freq": "",
    "Lat": -13.105437,
    "Lon": 16.42432,
    "Ele": 1696.2
  },
  {
    "type": "small_airport",
    "name": "Baía dos Tigres Airstrip",
    "gps_code": "AO-0053",
    "freq": "",
    "Lat": -16.6023,
    "Lon": 11.7222,
    "Ele": 0.0
  },
  {
    "type": "small_airport",
    "name": "Bentiaba Airfield",
    "gps_code": "AO-0055",
    "freq": "",
    "Lat": -14.25396,
    "Lon": 12.39103,
    "Ele": 0.0
  },
  {
    "type": "small_airport",
    "name": "Lunuango Airstrip",
    "gps_code": "AO-0056",
    "freq": "",
    "Lat": -6.4594,
    "Lon": 12.5697,
    "Ele": 0.0
  },
  {
    "type": "small_airport",
    "name": "Kwanda Airport",
    "gps_code": "AO-0057",
    "freq": "",
    "Lat": -6.1244,
    "Lon": 12.328,
    "Ele": 0.0
  },
  {
    "type": "small_airport",
    "name": "Emilio de Carvalho Airport",
    "gps_code": "AO-0059",
    "freq": "",
    "Lat": -5.93365,
    "Lon": 12.96583,
    "Ele": 11.0
  },
  {
    "type": "small_airport",
    "name": "Nhamuana Airport",
    "gps_code": "AO-0060",
    "freq": "",
    "Lat": -12.99457,
    "Lon": 22.7275,
    "Ele": 1075.9
  },
  {
    "type": "small_airport",
    "name": "Bicunga Airport",
    "gps_code": "AO-0062",
    "freq": "",
    "Lat": -13.78708,
    "Lon": 16.44915,
    "Ele": 1606.3
  },
  {
    "type": "small_airport",
    "name": "Tchindjenje Airport",
    "gps_code": "AO-0063",
    "freq": "",
    "Lat": -12.82279,
    "Lon": 14.93308,
    "Ele": 1371.9
  },
  {
    "type": "small_airport",
    "name": "Ganda Airport",
    "gps_code": "AO-0064",
    "freq": "",
    "Lat": -12.99473,
    "Lon": 14.64698,
    "Ele": 1271.0
  },
  {
    "type": "small_airport",
    "name": "Caimbambo Airport",
    "gps_code": "AO-0065",
    "freq": "",
    "Lat": -13.04186,
    "Lon": 13.99673,
    "Ele": 812.9
  },
  {
    "type": "small_airport",
    "name": "Lumbala Airstrip",
    "gps_code": "AO-0067",
    "freq": "",
    "Lat": -12.638947,
    "Lon": 22.589028,
    "Ele": 1069.8
  },
  {
    "type": "small_airport",
    "name": "Espinheira Airfield",
    "gps_code": "AO-0068",
    "freq": "",
    "Lat": -16.78214,
    "Lon": 12.35133,
    "Ele": 455.1
  },
  {
    "type": "small_airport",
    "name": "Praia do Capim Airfield",
    "gps_code": "AO-0069",
    "freq": "",
    "Lat": -15.73555,
    "Lon": 11.92488,
    "Ele": 10.1
  },
  {
    "type": "small_airport",
    "name": "Dombe Grande Airfield",
    "gps_code": "AO-0070",
    "freq": "",
    "Lat": -13.00966,
    "Lon": 13.10344,
    "Ele": 89.6
  },
  {
    "type": "small_airport",
    "name": "Canhoca Airstrip",
    "gps_code": "AO-0071",
    "freq": "",
    "Lat": -13.41936,
    "Lon": 12.56508,
    "Ele": 143.0
  },
  {
    "type": "small_airport",
    "name": "Huambo Airport",
    "gps_code": "AO-0074",
    "freq": "",
    "Lat": -12.786306,
    "Lon": 15.774528,
    "Ele": 1659.0
  },
  {
    "type": "small_airport",
    "name": "Cangamba Airport",
    "gps_code": "AO-CNZ",
    "freq": "",
    "Lat": -13.7106,
    "Lon": 19.861099,
    "Ele": 1186.9
  },
  {
    "type": "small_airport",
    "name": "Dirico Airport",
    "gps_code": "AO-DRC",
    "freq": "",
    "Lat": -17.981924,
    "Lon": 20.768061,
    "Ele": 1068.0
  },
  {
    "type": "small_airport",
    "name": "N'dalatando Airport",
    "gps_code": "AO-NDF",
    "freq": "",
    "Lat": -9.280378,
    "Lon": 14.982432,
    "Ele": 818.1
  },
  {
    "type": "small_airport",
    "name": "Cahama Airport",
    "gps_code": "FN17",
    "freq": "",
    "Lat": -16.238399505615234,
    "Lon": 14.326000213623049,
    "Ele": 1210.1
  },
  {
    "type": "small_airport",
    "name": "Matala Airport",
    "gps_code": "FN18",
    "freq": "",
    "Lat": -14.727499961853027,
    "Lon": 15.013999938964844,
    "Ele": 1255.8
  },
  {
    "type": "small_airport",
    "name": "Cabo Ledo Air Base",
    "gps_code": "FN19",
    "freq": "",
    "Lat": -9.65305,
    "Lon": 13.2606,
    "Ele": 109.7
  },
  {
    "type": "small_airport",
    "name": "Ambriz Airport",
    "gps_code": "FNAM",
    "freq": "",
    "Lat": -7.86222,
    "Lon": 13.1161,
    "Ele": 43.9
  },
  {
    "type": "medium_airport",
    "name": "Mbanza Congo Airport",
    "gps_code": "FNBC",
    "freq": "118.800",
    "Lat": -6.269899845123291,
    "Lon": 14.246999740600586,
    "Ele": 566.9
  },
  {
    "type": "medium_airport",
    "name": "Benguela Airport",
    "gps_code": "FNBG",
    "freq": "118.700",
    "Lat": -12.609,
    "Lon": 13.4037,
    "Ele": 36.0
  },
  {
    "type": "medium_airport",
    "name": "Dr. Antonio Agostinho Neto International Airport",
    "gps_code": "FNBJ",
    "freq": "",
    "Lat": -9.050734,
    "Lon": 13.499078,
    "Ele": 167.6
  },
  {
    "type": "small_airport",
    "name": "Lumbala Airport",
    "gps_code": "FNBL",
    "freq": "",
    "Lat": -14.105106,
    "Lon": 21.45083,
    "Ele": 1127.8
  },
  {
    "type": "medium_airport",
    "name": "Cabinda Airport",
    "gps_code": "FNCA",
    "freq": "118.300",
    "Lat": -5.59699010848999,
    "Lon": 12.188400268554688,
    "Ele": 20.1
  },
  {
    "type": "small_airport",
    "name": "Camembe Airport",
    "gps_code": "FNCB",
    "freq": "",
    "Lat": -8.119819,
    "Lon": 14.498963,
    "Ele": 690.1
  },
  {
    "type": "small_airport",
    "name": "Cacolo Airport",
    "gps_code": "FNCC",
    "freq": "",
    "Lat": -10.110278,
    "Lon": 19.287304,
    "Ele": 1341.1
  },
  {
    "type": "small_airport",
    "name": "Cafunfo Airport",
    "gps_code": "FNCF",
    "freq": "",
    "Lat": -8.78361,
    "Lon": 17.9897,
    "Ele": 0.0
  },
  {
    "type": "small_airport",
    "name": "Chitato Airport",
    "gps_code": "FNCH",
    "freq": "",
    "Lat": -7.35889,
    "Lon": 20.804701,
    "Ele": 762.0
  },
  {
    "type": "small_airport",
    "name": "Camabatela Airport",
    "gps_code": "FNCM",
    "freq": "",
    "Lat": -8.177847,
    "Lon": 15.383177,
    "Ele": 125.0
  },
  {
    "type": "small_airport",
    "name": "Kapanda Airport",
    "gps_code": "FNCP",
    "freq": "",
    "Lat": -9.76937,
    "Lon": 15.455319,
    "Ele": 1026.0
  },
  {
    "type": "medium_airport",
    "name": "Catumbela Airport",
    "gps_code": "FNCT",
    "freq": "",
    "Lat": -12.4792,
    "Lon": 13.4869,
    "Ele": 7.0
  },
  {
    "type": "small_airport",
    "name": "Calulo Airport",
    "gps_code": "FNCU",
    "freq": "",
    "Lat": -9.976268,
    "Lon": 14.917932,
    "Ele": 910.7
  },
  {
    "type": "small_airport",
    "name": "Cuito Cuanavale Airport",
    "gps_code": "FNCV",
    "freq": "",
    "Lat": -15.1603,
    "Lon": 19.156099,
    "Ele": 0.0
  },
  {
    "type": "small_airport",
    "name": "Camaxilo Airport",
    "gps_code": "FNCX",
    "freq": "",
    "Lat": -8.37361,
    "Lon": 18.923599,
    "Ele": 1206.1
  },
  {
    "type": "small_airport",
    "name": "Cazombo Airport",
    "gps_code": "FNCZ",
    "freq": "",
    "Lat": -11.8931,
    "Lon": 22.916239,
    "Ele": 1127.8
  },
  {
    "type": "small_airport",
    "name": "Damba Airport",
    "gps_code": "FNDB",
    "freq": "",
    "Lat": -6.9,
    "Lon": 15.133,
    "Ele": 1111.9
  },
  {
    "type": "medium_airport",
    "name": "Dundo Airport",
    "gps_code": "FNDU",
    "freq": "118.300",
    "Lat": -7.400889873504639,
    "Lon": 20.818500518798828,
    "Ele": 747.1
  },
  {
    "type": "medium_airport",
    "name": "Ngjiva Pereira Airport",
    "gps_code": "FNGI",
    "freq": "118.700",
    "Lat": -17.0435009003,
    "Lon": 15.683799743700002,
    "Ele": 1086.9
  },
  {
    "type": "medium_airport",
    "name": "Albano Machado Airport",
    "gps_code": "FNHU",
    "freq": "118.300",
    "Lat": -12.8089,
    "Lon": 15.7605,
    "Ele": 1702.9
  },
  {
    "type": "medium_airport",
    "name": "Kuito Airport",
    "gps_code": "FNKU",
    "freq": "118.700",
    "Lat": -12.404600143433,
    "Lon": 16.947399139404,
    "Ele": 1712.4
  },
  {
    "type": "small_airport",
    "name": "Lobito Airport",
    "gps_code": "FNLB",
    "freq": "118.300",
    "Lat": -12.3712,
    "Lon": 13.5366,
    "Ele": 3.0
  },
  {
    "type": "small_airport",
    "name": "Lucapa Airport",
    "gps_code": "FNLK",
    "freq": "",
    "Lat": -8.442339,
    "Lon": 20.732701,
    "Ele": 923.2
  },
  {
    "type": "large_airport",
    "name": "Quatro de Fevereiro International Airport",
    "gps_code": "FNLU",
    "freq": "129.500",
    "Lat": -8.85837,
    "Lon": 13.2312,
    "Ele": 74.1
  },
  {
    "type": "small_airport",
    "name": "Luzamba Airport",
    "gps_code": "FNLZ",
    "freq": "",
    "Lat": -9.11596012115,
    "Lon": 18.0492992401,
    "Ele": 885.1
  },
  {
    "type": "medium_airport",
    "name": "Malanje Airport",
    "gps_code": "FNMA",
    "freq": "118.900",
    "Lat": -9.525090217590332,
    "Lon": 16.312400817871094,
    "Ele": 1179.0
  },
  {
    "type": "medium_airport",
    "name": "Menongue Airport",
    "gps_code": "FNME",
    "freq": "118.900",
    "Lat": -14.657600402832031,
    "Lon": 17.71980094909668,
    "Ele": 1362.2
  },
  {
    "type": "medium_airport",
    "name": "Welwitschia Mirabilis International Airport",
    "gps_code": "FNMO",
    "freq": "118.100",
    "Lat": -15.2612,
    "Lon": 12.1468,
    "Ele": 64.0
  },
  {
    "type": "small_airport",
    "name": "Maquela Airport",
    "gps_code": "FNMQ",
    "freq": "",
    "Lat": -6.03028,
    "Lon": 15.1369,
    "Ele": 929.9
  },
  {
    "type": "medium_airport",
    "name": "Negage Airport",
    "gps_code": "FNNG",
    "freq": "118.700",
    "Lat": -7.754509925842285,
    "Lon": 15.287699699401855,
    "Ele": 1251.2
  },
  {
    "type": "medium_airport",
    "name": "Porto Amboim Airport",
    "gps_code": "FNPA",
    "freq": "118.800",
    "Lat": -10.722,
    "Lon": 13.7655,
    "Ele": 4.9
  },
  {
    "type": "small_airport",
    "name": "Sanza Pombo Airport",
    "gps_code": "FNPB",
    "freq": "",
    "Lat": -7.288999,
    "Lon": 15.930191,
    "Ele": 990.9
  },
  {
    "type": "medium_airport",
    "name": "Saurimo Airport",
    "gps_code": "FNSA",
    "freq": "118.100",
    "Lat": -9.68907,
    "Lon": 20.4319,
    "Ele": 1092.4
  },
  {
    "type": "medium_airport",
    "name": "Soyo Airport",
    "gps_code": "FNSO",
    "freq": "118.800",
    "Lat": -6.141089916229248,
    "Lon": 12.371800422668455,
    "Ele": 4.6
  },
  {
    "type": "medium_airport",
    "name": "Sumbe Airport",
    "gps_code": "FNSU",
    "freq": "118.800",
    "Lat": -11.1679,
    "Lon": 13.8475,
    "Ele": 11.0
  },
  {
    "type": "small_airport",
    "name": "Tchamutete Airport",
    "gps_code": "FNTE",
    "freq": "",
    "Lat": -15.216387,
    "Lon": 16.054915,
    "Ele": 1292.7
  },
  {
    "type": "small_airport",
    "name": "Xamindele Airport",
    "gps_code": "FNTO",
    "freq": "",
    "Lat": -7.14639,
    "Lon": 14.2486,
    "Ele": 541.0
  },
  {
    "type": "small_airport",
    "name": "Luau Airport",
    "gps_code": "FNUA",
    "freq": "",
    "Lat": -10.7158,
    "Lon": 22.2311,
    "Ele": 1100.0
  },
  {
    "type": "medium_airport",
    "name": "Lubango Airport",
    "gps_code": "FNUB",
    "freq": "118.900",
    "Lat": -14.924699783325195,
    "Lon": 13.574999809265137,
    "Ele": 1761.1
  },
  {
    "type": "medium_airport",
    "name": "Luena Airport",
    "gps_code": "FNUE",
    "freq": "118.100",
    "Lat": -11.7681,
    "Lon": 19.897699,
    "Ele": 1328.9
  },
  {
    "type": "medium_airport",
    "name": "Uige Airport",
    "gps_code": "FNUG",
    "freq": "118.700",
    "Lat": -7.60307,
    "Lon": 15.0278,
    "Ele": 829.1
  },
  {
    "type": "small_airport",
    "name": "Waco Kungo Airport",
    "gps_code": "FNWK",
    "freq": "",
    "Lat": -11.4264,
    "Lon": 15.1014,
    "Ele": 1318.0
  },
  {
    "type": "medium_airport",
    "name": "Xangongo Airport",
    "gps_code": "FNXA",
    "freq": "",
    "Lat": -16.755399703979492,
    "Lon": 14.965299606323242,
    "Ele": 1107.9
  },
  {
    "type": "small_airport",
    "name": "N'zeto Airport",
    "gps_code": "FNZE",
    "freq": "",
    "Lat": -7.259277,
    "Lon": 12.862355,
    "Ele": 21.0
  },
  {
    "type": "small_airport",
    "name": "Nzagi Airport",
    "gps_code": "FNZG",
    "freq": "",
    "Lat": -7.716939926149999,
    "Lon": 21.358200073200003,
    "Ele": 741.0
  },
  {
    "type": "small_airport",
    "name": "Jamba Airport",
    "gps_code": "JMB",
    "freq": "",
    "Lat": -14.698193,
    "Lon": 16.070148,
    "Ele": 1497.2
  }
]