[
  {
    "type": "small_airport",
    "name": "Bamingui Airport",
    "gps_code": "CF-0001",
    "freq": "",
    "Lat": 7.584231,
    "Lon": 20.171798,
    "Ele": 0.0
  },
  {
    "type": "small_airport",
    "name": "Bayanga Airport",
    "gps_code": "CF-0002",
    "freq": "",
    "Lat": 2.92405,
    "Lon": 16.265434,
    "Ele": 0.0
  },
  {
    "type": "small_airport",
    "name": "Boda Airport",
    "gps_code": "CF-0004",
    "freq": "",
    "Lat": 4.313039,
    "Lon": 17.48594,
    "Ele": 0.0
  },
  {
    "type": "small_airport",
    "name": "Obo Airport",
    "gps_code": "CF-0005",
    "freq": "",
    "Lat": 5.378512,
    "Lon": 26.476364,
    "Ele": 642.5
  },
  {
    "type": "small_airport",
    "name": "Goro Airport",
    "gps_code": "CF-0006",
    "freq": "",
    "Lat": 9.271226,
    "Lon": 21.195556,
    "Ele": 419.4
  },
  {
    "type": "small_airport",
    "name": "Ouandjia Sam Airport",
    "gps_code": "CF-0007",
    "freq": "",
    "Lat": 8.524158,
    "Lon": 23.240274,
    "Ele": 800.1
  },
  {
    "type": "small_airport",
    "name": "Nola Airport",
    "gps_code": "CF-0010",
    "freq": "",
    "Lat": 3.507713,
    "Lon": 16.041763,
    "Ele": 403.3
  },
  {
    "type": "small_airport",
    "name": "Kouango Airport",
    "gps_code": "CF-0011",
    "freq": "",
    "Lat": 4.99107,
    "Lon": 19.98374,
    "Ele": 377.0
  },
  {
    "type": "small_airport",
    "name": "Kavadja Airport",
    "gps_code": "CF-0012",
    "freq": "",
    "Lat": 7.964938,
    "Lon": 23.526018,
    "Ele": 730.0
  },
  {
    "type": "small_airport",
    "name": "Alindao Airport",
    "gps_code": "FEFA",
    "freq": "",
    "Lat": 5.022184,
    "Lon": 21.198635,
    "Ele": 448.1
  },
  {
    "type": "small_airport",
    "name": "Poste Airport",
    "gps_code": "FEFB",
    "freq": "",
    "Lat": 5.403889,
    "Lon": 26.487222,
    "Ele": 651.4
  },
  {
    "type": "small_airport",
    "name": "Carnot Airport",
    "gps_code": "FEFC",
    "freq": "",
    "Lat": 4.936999797821045,
    "Lon": 15.894000053405762,
    "Ele": 605.0
  },
  {
    "type": "small_airport",
    "name": "Damara Airport",
    "gps_code": "FEFD",
    "freq": "",
    "Lat": 4.949999809265137,
    "Lon": 18.700000762939453,
    "Ele": 434.9
  },
  {
    "type": "small_airport",
    "name": "Mobaye Mbanga Airport",
    "gps_code": "FEFE",
    "freq": "",
    "Lat": 4.37465,
    "Lon": 21.131901,
    "Ele": 406.0
  },
  {
    "type": "medium_airport",
    "name": "Bangui M'Poko International Airport",
    "gps_code": "FEFF",
    "freq": "655.900",
    "Lat": 4.39847993850708,
    "Lon": 18.518800735473636,
    "Ele": 368.2
  },
  {
    "type": "small_airport",
    "name": "Bangassou Airport",
    "gps_code": "FEFG",
    "freq": "",
    "Lat": 4.784999847412109,
    "Lon": 22.7810001373291,
    "Ele": 520.0
  },
  {
    "type": "small_airport",
    "name": "Birao Airport",
    "gps_code": "FEFI",
    "freq": "",
    "Lat": 10.23639965057373,
    "Lon": 22.71689987182617,
    "Ele": 516.9
  },
  {
    "type": "small_airport",
    "name": "Kembé Airport",
    "gps_code": "FEFK",
    "freq": "",
    "Lat": 4.6,
    "Lon": 21.867001,
    "Ele": 583.1
  },
  {
    "type": "small_airport",
    "name": "Bambari Airport",
    "gps_code": "FEFM",
    "freq": "",
    "Lat": 5.847012,
    "Lon": 20.64992,
    "Ele": 472.1
  },
  {
    "type": "small_airport",
    "name": "N'Délé Airport",
    "gps_code": "FEFN",
    "freq": "",
    "Lat": 8.427206039428711,
    "Lon": 20.635156631469727,
    "Ele": 497.1
  },
  {
    "type": "small_airport",
    "name": "Bouar Airport",
    "gps_code": "FEFO",
    "freq": "",
    "Lat": 5.958000183105469,
    "Lon": 15.63700008392334,
    "Ele": 1024.1
  },
  {
    "type": "small_airport",
    "name": "Paoua Airport",
    "gps_code": "FEFP",
    "freq": "",
    "Lat": 7.25,
    "Lon": 16.433001,
    "Ele": 620.9
  },
  {
    "type": "small_airport",
    "name": "Kaga-Bandoro Airport",
    "gps_code": "FEFQ",
    "freq": "",
    "Lat": 6.983,
    "Lon": 19.183001,
    "Ele": 449.9
  },
  {
    "type": "small_airport",
    "name": "Bria Airport",
    "gps_code": "FEFR",
    "freq": "",
    "Lat": 6.527780055999756,
    "Lon": 21.98940086364746,
    "Ele": 602.0
  },
  {
    "type": "small_airport",
    "name": "Bossangoa Airport",
    "gps_code": "FEFS",
    "freq": "",
    "Lat": 6.492000102996826,
    "Lon": 17.429000854492188,
    "Ele": 499.0
  },
  {
    "type": "medium_airport",
    "name": "Berbérati Airport",
    "gps_code": "FEFT",
    "freq": "118.700",
    "Lat": 4.221580028533936,
    "Lon": 15.786399841308594,
    "Ele": 588.0
  },
  {
    "type": "small_airport",
    "name": "Sibut Airport",
    "gps_code": "FEFU",
    "freq": "",
    "Lat": 5.733,
    "Lon": 19.083,
    "Ele": 430.1
  },
  {
    "type": "small_airport",
    "name": "Ouadda Airport",
    "gps_code": "FEFW",
    "freq": "",
    "Lat": 8.010560035705566,
    "Lon": 22.39859962463379,
    "Ele": 750.1
  },
  {
    "type": "small_airport",
    "name": "Yalinga Airport",
    "gps_code": "FEFY",
    "freq": "",
    "Lat": 6.519999980926514,
    "Lon": 23.26000022888184,
    "Ele": 602.0
  },
  {
    "type": "small_airport",
    "name": "Zemio Airport",
    "gps_code": "FEFZ",
    "freq": "",
    "Lat": 5.002226,
    "Lon": 25.101857,
    "Ele": 608.1
  },
  {
    "type": "small_airport",
    "name": "Bambouli Airport",
    "gps_code": "FEGB",
    "freq": "",
    "Lat": 5.433000087738037,
    "Lon": 27.21699905395508,
    "Ele": 690.1
  },
  {
    "type": "small_airport",
    "name": "Bocaranga Airport",
    "gps_code": "FEGC",
    "freq": "",
    "Lat": 6.917,
    "Lon": 15.617,
    "Ele": 1055.8
  },
  {
    "type": "small_airport",
    "name": "Dekoa Airport",
    "gps_code": "FEGD",
    "freq": "",
    "Lat": 6.300000190734863,
    "Lon": 19.08300018310547,
    "Ele": 549.9
  },
  {
    "type": "small_airport",
    "name": "M'Boki Airport",
    "gps_code": "FEGE",
    "freq": "",
    "Lat": 5.33301019669,
    "Lon": 25.9319000244,
    "Ele": 600.2
  },
  {
    "type": "small_airport",
    "name": "Batangafo Airport",
    "gps_code": "FEGF",
    "freq": "",
    "Lat": 7.314109802246094,
    "Lon": 18.308799743652344,
    "Ele": 420.0
  },
  {
    "type": "small_airport",
    "name": "Gamboula Airport",
    "gps_code": "FEGG",
    "freq": "",
    "Lat": 4.133,
    "Lon": 15.15,
    "Ele": 609.9
  },
  {
    "type": "small_airport",
    "name": "Grimari Airport",
    "gps_code": "FEGI",
    "freq": "",
    "Lat": 5.683000087738037,
    "Lon": 20.049999237060547,
    "Ele": 399.9
  },
  {
    "type": "small_airport",
    "name": "Gordil Airport",
    "gps_code": "FEGL",
    "freq": "",
    "Lat": 9.581117,
    "Lon": 21.728172,
    "Ele": 434.9
  },
  {
    "type": "small_airport",
    "name": "Bakouma Airport",
    "gps_code": "FEGM",
    "freq": "",
    "Lat": 5.693999767303467,
    "Lon": 22.801000595092773,
    "Ele": 499.9
  },
  {
    "type": "small_airport",
    "name": "Ouanda Djallé Airport",
    "gps_code": "FEGO",
    "freq": "",
    "Lat": 8.899999618530273,
    "Lon": 22.78300094604492,
    "Ele": 605.0
  },
  {
    "type": "small_airport",
    "name": "Rafaï Airport",
    "gps_code": "FEGR",
    "freq": "",
    "Lat": 4.988609790802002,
    "Lon": 23.92779922485352,
    "Ele": 536.1
  },
  {
    "type": "small_airport",
    "name": "Bouca Airport",
    "gps_code": "FEGU",
    "freq": "",
    "Lat": 6.517000198364258,
    "Lon": 18.267000198364254,
    "Ele": 467.0
  },
  {
    "type": "small_airport",
    "name": "Bozoum Airport",
    "gps_code": "FEGZ",
    "freq": "",
    "Lat": 6.344170093536377,
    "Lon": 16.3218994140625,
    "Ele": 675.1
  }
]