[
  {
    "type": "small_airport",
    "name": "Assouindé Airport",
    "gps_code": "CI-0001",
    "freq": "",
    "Lat": 5.17544,
    "Lon": -3.47049,
    "Ele": 7.0
  },
  {
    "type": "small_airport",
    "name": "Cosrou Airport",
    "gps_code": "CI-0002",
    "freq": "",
    "Lat": 5.3156,
    "Lon": -4.6459,
    "Ele": 0.0
  },
  {
    "type": "small_airport",
    "name": "Wèoulo Airport",
    "gps_code": "CI-0003",
    "freq": "",
    "Lat": 4.6874,
    "Lon": -7.0773,
    "Ele": 0.0
  },
  {
    "type": "small_airport",
    "name": "Zagné Airport",
    "gps_code": "CI-0005",
    "freq": "",
    "Lat": 6.215391,
    "Lon": -7.500315,
    "Ele": 223.1
  },
  {
    "type": "small_airport",
    "name": "Aboisso Airport",
    "gps_code": "DIAO",
    "freq": "",
    "Lat": 5.461944,
    "Lon": -3.234722,
    "Ele": 29.0
  },
  {
    "type": "medium_airport",
    "name": "Félix-Houphouët-Boigny International Airport",
    "gps_code": "DIAP",
    "freq": "568.000",
    "Lat": 5.26139,
    "Lon": -3.92629,
    "Ele": 6.4
  },
  {
    "type": "small_airport",
    "name": "Abengourou Airport",
    "gps_code": "DIAU",
    "freq": "",
    "Lat": 6.71556,
    "Lon": -3.47028,
    "Ele": 206.0
  },
  {
    "type": "small_airport",
    "name": "Bocanda Airport",
    "gps_code": "DIBC",
    "freq": "",
    "Lat": 7.033,
    "Lon": -4.533,
    "Ele": 130.1
  },
  {
    "type": "small_airport",
    "name": "Boundiali Airport",
    "gps_code": "DIBI",
    "freq": "",
    "Lat": 9.540571,
    "Lon": -6.469831,
    "Ele": 392.0
  },
  {
    "type": "medium_airport",
    "name": "Bouaké Airport",
    "gps_code": "DIBK",
    "freq": "667.300",
    "Lat": 7.7388,
    "Lon": -5.07367,
    "Ele": 374.9
  },
  {
    "type": "small_airport",
    "name": "Bouna Airport",
    "gps_code": "DIBN",
    "freq": "",
    "Lat": 9.255556,
    "Lon": -3.033333,
    "Ele": 349.9
  },
  {
    "type": "small_airport",
    "name": "Soko Airport",
    "gps_code": "DIBU",
    "freq": "",
    "Lat": 8.01722,
    "Lon": -2.76194,
    "Ele": 380.1
  },
  {
    "type": "small_airport",
    "name": "Dabou Airport",
    "gps_code": "DIDB",
    "freq": "",
    "Lat": 5.351385,
    "Lon": -4.403458,
    "Ele": 43.0
  },
  {
    "type": "small_airport",
    "name": "Dimbokro Airport",
    "gps_code": "DIDK",
    "freq": "",
    "Lat": 6.65167,
    "Lon": -4.64056,
    "Ele": 104.9
  },
  {
    "type": "medium_airport",
    "name": "Daloa Airport",
    "gps_code": "DIDL",
    "freq": "118.700",
    "Lat": 6.79281,
    "Lon": -6.47319,
    "Ele": 250.9
  },
  {
    "type": "small_airport",
    "name": "Gagnoa Airport",
    "gps_code": "DIGA",
    "freq": "",
    "Lat": 6.102855,
    "Lon": -5.986809,
    "Ele": 223.1
  },
  {
    "type": "small_airport",
    "name": "Guiglo Airport",
    "gps_code": "DIGL",
    "freq": "",
    "Lat": 6.534711,
    "Lon": -7.526847,
    "Ele": 220.1
  },
  {
    "type": "small_airport",
    "name": "Nero-Mer Airport",
    "gps_code": "DIGN",
    "freq": "",
    "Lat": 4.64341306686,
    "Lon": -6.923961639400001,
    "Ele": 6.1
  },
  {
    "type": "medium_airport",
    "name": "Korhogo Airport",
    "gps_code": "DIKO",
    "freq": "667.300",
    "Lat": 9.38718,
    "Lon": -5.55666,
    "Ele": 370.0
  },
  {
    "type": "medium_airport",
    "name": "Man Airport",
    "gps_code": "DIMN",
    "freq": "667.300",
    "Lat": 7.27207,
    "Lon": -7.58736,
    "Ele": 331.9
  },
  {
    "type": "small_airport",
    "name": "Odienne Airport",
    "gps_code": "DIOD",
    "freq": "118.800",
    "Lat": 9.539457,
    "Lon": -7.56134,
    "Ele": 416.1
  },
  {
    "type": "small_airport",
    "name": "Ouango Fitini Airport",
    "gps_code": "DIOF",
    "freq": "",
    "Lat": 9.6,
    "Lon": -4.05,
    "Ele": 296.9
  },
  {
    "type": "small_airport",
    "name": "Séguéla Airport",
    "gps_code": "DISG",
    "freq": "",
    "Lat": 7.96,
    "Lon": -6.644167,
    "Ele": 321.9
  },
  {
    "type": "medium_airport",
    "name": "San Pedro Airport",
    "gps_code": "DISP",
    "freq": "667.300",
    "Lat": 4.74672,
    "Lon": -6.66082,
    "Ele": 7.9
  },
  {
    "type": "small_airport",
    "name": "Sassandra Airport",
    "gps_code": "DISS",
    "freq": "",
    "Lat": 4.928888,
    "Lon": -6.133156,
    "Ele": 61.9
  },
  {
    "type": "small_airport",
    "name": "Tabou Airport",
    "gps_code": "DITB",
    "freq": "",
    "Lat": 4.437809467315674,
    "Lon": -7.362728118896484,
    "Ele": 11.9
  },
  {
    "type": "small_airport",
    "name": "Mahana Airport",
    "gps_code": "DITM",
    "freq": "",
    "Lat": 8.2934,
    "Lon": -7.674,
    "Ele": 482.5
  },
  {
    "type": "medium_airport",
    "name": "Yamoussoukro Airport",
    "gps_code": "DIYO",
    "freq": "667.300",
    "Lat": 6.9031701088,
    "Lon": -5.36558008194,
    "Ele": 213.1
  },
  {
    "type": "small_airport",
    "name": "Katiola Airport",
    "gps_code": "KTC",
    "freq": "",
    "Lat": 8.132858,
    "Lon": -5.06487,
    "Ele": 312.7
  }
]