[
  {
    "type": "small_airport",
    "name": "Ar Horqin Airport",
    "gps_code": "AEQ",
    "freq": "",
    "Lat": 43.908407,
    "Lon": 120.15099,
    "Ele": 406.9
  },
  {
    "type": "medium_airport",
    "name": "Alxa Left Banner Bayanhot Airport",
    "gps_code": "AXF",
    "freq": "",
    "Lat": 38.748317,
    "Lon": 105.58416,
    "Ele": 1389.9
  },
  {
    "type": "medium_airport",
    "name": "Laohutun Air Base",
    "gps_code": "CN-0003",
    "freq": "",
    "Lat": 39.669998,
    "Lon": 121.765999,
    "Ele": 0.0
  },
  {
    "type": "medium_airport",
    "name": "Pulandian Air Base",
    "gps_code": "CN-0004",
    "freq": "",
    "Lat": 39.450901,
    "Lon": 122.017998,
    "Ele": 0.0
  },
  {
    "type": "medium_airport",
    "name": "Beijing Shahezhen Air Base",
    "gps_code": "CN-0006",
    "freq": "",
    "Lat": 40.14916610717773,
    "Lon": 116.3213882446289,
    "Ele": 0.0
  },
  {
    "type": "medium_airport",
    "name": "Beijing Tongxian Air Base",
    "gps_code": "CN-0007",
    "freq": "",
    "Lat": 39.81111145019531,
    "Lon": 116.70833587646484,
    "Ele": 0.0
  },
  {
    "type": "small_airport",
    "name": "Wanggang Airfield",
    "gps_code": "CN-0008",
    "freq": "",
    "Lat": 45.670924,
    "Lon": 126.521812,
    "Ele": 0.0
  },
  {
    "type": "small_airport",
    "name": "Shuangyushu Airfield",
    "gps_code": "CN-0009",
    "freq": "",
    "Lat": 45.663982,
    "Lon": 126.700099,
    "Ele": 0.0
  },
  {
    "type": "small_airport",
    "name": "Zhuhai Jiuzhou Airport",
    "gps_code": "CN-0010",
    "freq": "",
    "Lat": 22.252075,
    "Lon": 113.590229,
    "Ele": 0.9
  },
  {
    "type": "small_airport",
    "name": "Yixing Dingshu General Airport",
    "gps_code": "CN-0012",
    "freq": "",
    "Lat": 31.311688,
    "Lon": 119.904848,
    "Ele": 5.2
  },
  {
    "type": "medium_airport",
    "name": "Fengning Air Base",
    "gps_code": "CN-0013",
    "freq": "",
    "Lat": 41.26079940795898,
    "Lon": 116.61799621582033,
    "Ele": 0.0
  },
  {
    "type": "medium_airport",
    "name": "Hohhot Bikeqi Air Base",
    "gps_code": "CN-0014",
    "freq": "",
    "Lat": 40.737015,
    "Lon": 111.229749,
    "Ele": 0.0
  },
  {
    "type": "medium_airport",
    "name": "Huairen Air Base",
    "gps_code": "CN-0015",
    "freq": "",
    "Lat": 39.717499,
    "Lon": 113.142998,
    "Ele": 993.6
  },
  {
    "type": "medium_airport",
    "name": "Liangxiangzhen Air Base",
    "gps_code": "CN-0016",
    "freq": "",
    "Lat": 39.757801,
    "Lon": 116.125999,
    "Ele": 0.0
  },
  {
    "type": "medium_airport",
    "name": "Tangguantun Air Base",
    "gps_code": "CN-0018",
    "freq": "",
    "Lat": 38.781101,
    "Lon": 117.068001,
    "Ele": 0.0
  },
  {
    "type": "medium_airport",
    "name": "Wenshui Air Base",
    "gps_code": "CN-0020",
    "freq": "",
    "Lat": 37.407799,
    "Lon": 111.966003,
    "Ele": 0.0
  },
  {
    "type": "medium_airport",
    "name": "Yangcun Air Base",
    "gps_code": "CN-0021",
    "freq": "",
    "Lat": 39.37329864501953,
    "Lon": 117.09500122070312,
    "Ele": 0.0
  },
  {
    "type": "medium_airport",
    "name": "Yongning Air Base",
    "gps_code": "CN-0022",
    "freq": "",
    "Lat": 40.50310134887695,
    "Lon": 116.10800170898438,
    "Ele": 0.0
  },
  {
    "type": "small_airport",
    "name": "Beijing Yanqing Airport",
    "gps_code": "CN-0023",
    "freq": "",
    "Lat": 40.379146,
    "Lon": 115.937519,
    "Ele": 533.4
  },
  {
    "type": "medium_airport",
    "name": "Tangshan Zunhua Air Base",
    "gps_code": "CN-0025",
    "freq": "",
    "Lat": 40.102501,
    "Lon": 117.887001,
    "Ele": 0.0
  },
  {
    "type": "medium_airport",
    "name": "Chengdu Huangtianba Air Base",
    "gps_code": "CN-0026",
    "freq": "",
    "Lat": 30.705299,
    "Lon": 103.949997,
    "Ele": 0.0
  },
  {
    "type": "small_airport",
    "name": "Yongshu Jiao (Fiery Cross Reef) Air Base",
    "gps_code": "CN-0029",
    "freq": "",
    "Lat": 9.551747,
    "Lon": 112.887697,
    "Ele": 0.0
  },
  {
    "type": "medium_airport",
    "name": "Chongqing Baishiyi Air Base",
    "gps_code": "CN-0030",
    "freq": "",
    "Lat": 29.4953,
    "Lon": 106.359001,
    "Ele": 0.0
  },
  {
    "type": "small_airport",
    "name": "Damxung Air Base",
    "gps_code": "CN-0033",
    "freq": "",
    "Lat": 30.486273,
    "Lon": 91.082561,
    "Ele": 4299.2
  },
  {
    "type": "small_airport",
    "name": "Shantou Waisha Airport",
    "gps_code": "CN-0036",
    "freq": "",
    "Lat": 23.426901,
    "Lon": 116.762001,
    "Ele": 8.8
  },
  {
    "type": "small_airport",
    "name": "Yongji Airport",
    "gps_code": "CN-0037",
    "freq": "",
    "Lat": 34.8723,
    "Lon": 110.361,
    "Ele": 376.7
  },
  {
    "type": "small_airport",
    "name": "Lijiang Airport",
    "gps_code": "CN-0039",
    "freq": "",
    "Lat": 23.5847,
    "Lon": 102.010003,
    "Ele": 0.0
  },
  {
    "type": "medium_airport",
    "name": "Luliang Air Base",
    "gps_code": "CN-0041",
    "freq": "",
    "Lat": 24.988192,
    "Lon": 103.642833,
    "Ele": 0.0
  },
  {
    "type": "medium_airport",
    "name": "Honghe Mengzi Airport / Mengzi Air Base",
    "gps_code": "CN-0043",
    "freq": "",
    "Lat": 23.3953,
    "Lon": 103.334,
    "Ele": 0.0
  },
  {
    "type": "medium_airport",
    "name": "Qionglai Air Base",
    "gps_code": "CN-0045",
    "freq": "",
    "Lat": 30.49099,
    "Lon": 103.466139,
    "Ele": 0.0
  },
  {
    "type": "medium_airport",
    "name": "Wenshan Air Base",
    "gps_code": "CN-0048",
    "freq": "",
    "Lat": 23.715599060058597,
    "Lon": 103.8270034790039,
    "Ele": 0.0
  },
  {
    "type": "medium_airport",
    "name": "Xiangyun Midu Air Base",
    "gps_code": "CN-0049",
    "freq": "",
    "Lat": 25.445299,
    "Lon": 100.735001,
    "Ele": 0.0
  },
  {
    "type": "small_airport",
    "name": "Zigong Fengming Airport",
    "gps_code": "CN-0051",
    "freq": "",
    "Lat": 29.376484,
    "Lon": 104.625789,
    "Ele": 345.3
  },
  {
    "type": "small_airport",
    "name": "Leshan Jiajiang Airport",
    "gps_code": "CN-0052",
    "freq": "",
    "Lat": 29.732148,
    "Lon": 103.613477,
    "Ele": 0.0
  },
  {
    "type": "medium_airport",
    "name": "Baihe Ningming Air Base",
    "gps_code": "CN-0053",
    "freq": "",
    "Lat": 22.120481,
    "Lon": 107.125046,
    "Ele": 0.0
  },
  {
    "type": "small_airport",
    "name": "Baoding Huangzhang Airport",
    "gps_code": "CN-0054",
    "freq": "",
    "Lat": 38.83359,
    "Lon": 115.521626,
    "Ele": 0.0
  },
  {
    "type": "medium_airport",
    "name": "Changsha Datuopu Airport / Changsha Air Base",
    "gps_code": "CN-0055",
    "freq": "",
    "Lat": 28.068522,
    "Lon": 112.957306,
    "Ele": 51.8
  },
  {
    "type": "medium_airport",
    "name": "Dangyang Air Base",
    "gps_code": "CN-0056",
    "freq": "",
    "Lat": 30.798599,
    "Lon": 111.809998,
    "Ele": 0.0
  },
  {
    "type": "medium_airport",
    "name": "Foluo Northeast Air Base",
    "gps_code": "CN-0057",
    "freq": "",
    "Lat": 18.6922,
    "Lon": 109.161003,
    "Ele": 0.0
  },
  {
    "type": "small_airport",
    "name": "Guangzhou East Airfield",
    "gps_code": "CN-0059",
    "freq": "",
    "Lat": 23.1647,
    "Lon": 113.369003,
    "Ele": 0.0
  },
  {
    "type": "small_airport",
    "name": "Haibei Airport",
    "gps_code": "CN-0060",
    "freq": "",
    "Lat": 36.990726,
    "Lon": 100.857505,
    "Ele": 0.0
  },
  {
    "type": "small_airport",
    "name": "Bazhong Enyang Airport",
    "gps_code": "CN-0062",
    "freq": "",
    "Lat": 31.73842,
    "Lon": 106.644872,
    "Ele": 549.9
  },
  {
    "type": "medium_airport",
    "name": "Guiping Mengxu Air Base",
    "gps_code": "CN-0063",
    "freq": "",
    "Lat": 23.330799,
    "Lon": 110.009003,
    "Ele": 52.1
  },
  {
    "type": "small_airport",
    "name": "Guiyang Air Base",
    "gps_code": "CN-0066",
    "freq": "",
    "Lat": 26.40994,
    "Lon": 106.532264,
    "Ele": 0.0
  },
  {
    "type": "medium_airport",
    "name": "Jialaishi Air Base",
    "gps_code": "CN-0069",
    "freq": "",
    "Lat": 19.697201,
    "Lon": 109.725998,
    "Ele": 0.0
  },
  {
    "type": "medium_airport",
    "name": "Leiyang Air Base",
    "gps_code": "CN-0071",
    "freq": "",
    "Lat": 26.58720016479492,
    "Lon": 112.89199829101562,
    "Ele": 0.0
  },
  {
    "type": "medium_airport",
    "name": "Lingshui Air Base",
    "gps_code": "CN-0072",
    "freq": "",
    "Lat": 18.4944,
    "Lon": 109.987999,
    "Ele": 0.0
  },
  {
    "type": "small_airport",
    "name": "Shangluo Airport",
    "gps_code": "CN-0073",
    "freq": "",
    "Lat": 33.708533,
    "Lon": 110.249284,
    "Ele": 0.0
  },
  {
    "type": "medium_airport",
    "name": "Shangqiu Air Base",
    "gps_code": "CN-0074",
    "freq": "",
    "Lat": 34.449507,
    "Lon": 115.459261,
    "Ele": 0.0
  },
  {
    "type": "medium_airport",
    "name": "Zhengzhou Air Base",
    "gps_code": "CN-0076",
    "freq": "",
    "Lat": 34.86125,
    "Lon": 113.729631,
    "Ele": 0.0
  },
  {
    "type": "medium_airport",
    "name": "Shaoguan Danxia Airport",
    "gps_code": "CN-0079",
    "freq": "",
    "Lat": 24.9786,
    "Lon": 113.420998,
    "Ele": 85.3
  },
  {
    "type": "medium_airport",
    "name": "Suixi Air Base",
    "gps_code": "CN-0080",
    "freq": "130.000",
    "Lat": 21.3958,
    "Lon": 110.199997,
    "Ele": 0.0
  },
  {
    "type": "medium_airport",
    "name": "Jinggangshan Airport",
    "gps_code": "CN-0081",
    "freq": "",
    "Lat": 26.856899,
    "Lon": 114.737,
    "Ele": 85.6
  },
  {
    "type": "medium_airport",
    "name": "Guodu Air Base",
    "gps_code": "CN-0083",
    "freq": "",
    "Lat": 36.000428,
    "Lon": 117.625833,
    "Ele": 0.0
  },
  {
    "type": "medium_airport",
    "name": "Xiaogan Air Base",
    "gps_code": "CN-0085",
    "freq": "",
    "Lat": 30.95359,
    "Lon": 113.911774,
    "Ele": 0.0
  },
  {
    "type": "medium_airport",
    "name": "Cangxian Air Base",
    "gps_code": "CN-0090",
    "freq": "",
    "Lat": 38.403025,
    "Lon": 116.930924,
    "Ele": 0.0
  },
  {
    "type": "medium_airport",
    "name": "Jiaozhou Jiaocheng Air Base",
    "gps_code": "CN-0092",
    "freq": "",
    "Lat": 36.331163,
    "Lon": 120.025538,
    "Ele": 18.9
  },
  {
    "type": "small_airport",
    "name": "Jinan Qihe Air Base",
    "gps_code": "CN-0093",
    "freq": "",
    "Lat": 36.768569,
    "Lon": 116.639786,
    "Ele": 25.0
  },
  {
    "type": "medium_airport",
    "name": "Jiugucheng Air Base",
    "gps_code": "CN-0094",
    "freq": "",
    "Lat": 37.491153,
    "Lon": 116.116726,
    "Ele": 22.9
  },
  {
    "type": "medium_airport",
    "name": "Kaifeng Air Base",
    "gps_code": "CN-0095",
    "freq": "",
    "Lat": 34.75389862060547,
    "Lon": 114.33899688720705,
    "Ele": 0.0
  },
  {
    "type": "medium_airport",
    "name": "Laiyang Air Base",
    "gps_code": "CN-0096",
    "freq": "",
    "Lat": 36.9636,
    "Lon": 120.591003,
    "Ele": 0.0
  },
  {
    "type": "medium_airport",
    "name": "Luyang Air Base",
    "gps_code": "CN-0097",
    "freq": "",
    "Lat": 33.685434,
    "Lon": 112.89053,
    "Ele": 143.0
  },
  {
    "type": "small_airport",
    "name": "Hailar Southwest Airport",
    "gps_code": "CN-0098",
    "freq": "",
    "Lat": 49.164182,
    "Lon": 119.693685,
    "Ele": 619.0
  },
  {
    "type": "small_airport",
    "name": "Chaor Airstrip",
    "gps_code": "CN-0099",
    "freq": "",
    "Lat": 48.425954,
    "Lon": 121.387768,
    "Ele": 918.1
  },
  {
    "type": "small_airport",
    "name": "Qingdao Cangkou Air Base",
    "gps_code": "CN-0100",
    "freq": "",
    "Lat": 36.158929,
    "Lon": 120.387832,
    "Ele": 0.0
  },
  {
    "type": "small_airport",
    "name": "Zhongshan Sanjiao Airport",
    "gps_code": "CN-0102",
    "freq": "",
    "Lat": 22.66392,
    "Lon": 113.46885,
    "Ele": 0.0
  },
  {
    "type": "small_airport",
    "name": "Xuzhou Yangmiao Agricultural Airport",
    "gps_code": "CN-0105",
    "freq": "",
    "Lat": 34.56423,
    "Lon": 116.97377,
    "Ele": 36.9
  },
  {
    "type": "medium_airport",
    "name": "Xuzhou Daguozhang Air Base",
    "gps_code": "CN-0106",
    "freq": "",
    "Lat": 34.229285,
    "Lon": 117.245665,
    "Ele": 0.0
  },
  {
    "type": "small_airport",
    "name": "Zhubi Jiao (Subi Reef) Air Base",
    "gps_code": "CN-0108",
    "freq": "",
    "Lat": 10.923926,
    "Lon": 114.070648,
    "Ele": 0.0
  },
  {
    "type": "small_airport",
    "name": "Yidu Air Base",
    "gps_code": "CN-0109",
    "freq": "",
    "Lat": 36.586649,
    "Lon": 118.527712,
    "Ele": 0.0
  },
  {
    "type": "small_airport",
    "name": "Meiji Jiao (Mischief Reef) Air Base",
    "gps_code": "CN-0110",
    "freq": "",
    "Lat": 9.92102,
    "Lon": 115.5059,
    "Ele": 0.0
  },
  {
    "type": "medium_airport",
    "name": "Zhucheng Air Base",
    "gps_code": "CN-0111",
    "freq": "",
    "Lat": 36.027468,
    "Lon": 119.43778,
    "Ele": 0.0
  },
  {
    "type": "medium_airport",
    "name": "Baoji Air Base",
    "gps_code": "CN-0114",
    "freq": "",
    "Lat": 34.53125,
    "Lon": 107.470679,
    "Ele": 0.0
  },
  {
    "type": "medium_airport",
    "name": "Gonghe Air Base (under construction)",
    "gps_code": "CN-0117",
    "freq": "",
    "Lat": 36.3367,
    "Lon": 100.480003,
    "Ele": 0.0
  },
  {
    "type": "medium_airport",
    "name": "Huangdicun Naval Air Base",
    "gps_code": "CN-0121",
    "freq": "",
    "Lat": 40.49979,
    "Lon": 120.659295,
    "Ele": 29.6
  },
  {
    "type": "medium_airport",
    "name": "Lanzhou Air Base",
    "gps_code": "CN-0123",
    "freq": "",
    "Lat": 35.917801,
    "Lon": 104.218002,
    "Ele": 0.0
  },
  {
    "type": "medium_airport",
    "name": "Lintao Air Base",
    "gps_code": "CN-0125",
    "freq": "",
    "Lat": 35.3083,
    "Lon": 103.835999,
    "Ele": 0.0
  },
  {
    "type": "medium_airport",
    "name": "Qingshui Air Base",
    "gps_code": "CN-0127",
    "freq": "",
    "Lat": 39.554699,
    "Lon": 98.884201,
    "Ele": 1485.0
  },
  {
    "type": "small_airport",
    "name": "Shihezi Shandanhu General Airport",
    "gps_code": "CN-0129",
    "freq": "",
    "Lat": 44.333051,
    "Lon": 86.116674,
    "Ele": 0.0
  },
  {
    "type": "medium_airport",
    "name": "Ürümqi South Air Base",
    "gps_code": "CN-0132",
    "freq": "",
    "Lat": 43.466593,
    "Lon": 87.531177,
    "Ele": 0.0
  },
  {
    "type": "medium_airport",
    "name": "Uxxaktal Air Base",
    "gps_code": "CN-0133",
    "freq": "",
    "Lat": 42.1814,
    "Lon": 87.188103,
    "Ele": 0.0
  },
  {
    "type": "medium_airport",
    "name": "Wugong Air Base",
    "gps_code": "CN-0134",
    "freq": "",
    "Lat": 34.275907,
    "Lon": 108.2658,
    "Ele": 0.0
  },
  {
    "type": "medium_airport",
    "name": "Ürümqi Changji Air Base",
    "gps_code": "CN-0135",
    "freq": "",
    "Lat": 43.951175,
    "Lon": 87.079232,
    "Ele": 739.1
  },
  {
    "type": "medium_airport",
    "name": "Wuwei Air Base",
    "gps_code": "CN-0136",
    "freq": "",
    "Lat": 37.9883,
    "Lon": 102.567001,
    "Ele": 0.0
  },
  {
    "type": "medium_airport",
    "name": "Xi'an Air Base",
    "gps_code": "CN-0137",
    "freq": "",
    "Lat": 34.153059,
    "Lon": 108.599739,
    "Ele": 407.5
  },
  {
    "type": "medium_airport",
    "name": "Xincheng Air Base",
    "gps_code": "CN-0138",
    "freq": "",
    "Lat": 25.5483,
    "Lon": 114.619003,
    "Ele": 0.0
  },
  {
    "type": "medium_airport",
    "name": "Yaerbashi Test Range",
    "gps_code": "CN-0139",
    "freq": "",
    "Lat": 43.077202,
    "Lon": 92.808098,
    "Ele": 0.0
  },
  {
    "type": "medium_airport",
    "name": "Yanliang Air Base",
    "gps_code": "CN-0140",
    "freq": "",
    "Lat": 34.642248,
    "Lon": 109.241867,
    "Ele": 0.0
  },
  {
    "type": "small_airport",
    "name": "Guilin Qifengling Airport",
    "gps_code": "CN-0141",
    "freq": "",
    "Lat": 25.193836,
    "Lon": 110.32033,
    "Ele": 145.1
  },
  {
    "type": "small_airport",
    "name": "Changxing Air Base",
    "gps_code": "CN-0145",
    "freq": "",
    "Lat": 30.968599,
    "Lon": 119.731003,
    "Ele": 0.0
  },
  {
    "type": "medium_airport",
    "name": "Daishan Air Base",
    "gps_code": "CN-0146",
    "freq": "",
    "Lat": 30.287581,
    "Lon": 122.144401,
    "Ele": 2.1
  },
  {
    "type": "medium_airport",
    "name": "Feidong Air Base",
    "gps_code": "CN-0147",
    "freq": "",
    "Lat": 31.909401,
    "Lon": 117.658997,
    "Ele": 0.0
  },
  {
    "type": "medium_airport",
    "name": "Fuzhou Air Base",
    "gps_code": "CN-0149",
    "freq": "",
    "Lat": 26.003857,
    "Lon": 119.312832,
    "Ele": 6.1
  },
  {
    "type": "medium_airport",
    "name": "Huian Air Base",
    "gps_code": "CN-0152",
    "freq": "",
    "Lat": 25.0261,
    "Lon": 118.806999,
    "Ele": 22.9
  },
  {
    "type": "medium_airport",
    "name": "Hangzhou Jianqiao Airport",
    "gps_code": "CN-0153",
    "freq": "",
    "Lat": 30.3353,
    "Lon": 120.240997,
    "Ele": 0.0
  },
  {
    "type": "medium_airport",
    "name": "Jiaxing Airport / Jiaxing Air Base",
    "gps_code": "CN-0154",
    "freq": "",
    "Lat": 30.705535,
    "Lon": 120.679779,
    "Ele": 5.2
  },
  {
    "type": "small_airport",
    "name": "Shanghai Chongming Airport",
    "gps_code": "CN-0155",
    "freq": "",
    "Lat": 31.664,
    "Lon": 121.5187,
    "Ele": 4.9
  },
  {
    "type": "small_airport",
    "name": "Morin Dawa Banner Airport",
    "gps_code": "CN-0157",
    "freq": "",
    "Lat": 48.38745,
    "Lon": 124.43127,
    "Ele": 220.1
  },
  {
    "type": "medium_airport",
    "name": "Longtian Air Base",
    "gps_code": "CN-0158",
    "freq": "",
    "Lat": 25.5728,
    "Lon": 119.459999,
    "Ele": 4.0
  },
  {
    "type": "medium_airport",
    "name": "Nanchang Xiangtang Air Base",
    "gps_code": "CN-0163",
    "freq": "",
    "Lat": 28.421205,
    "Lon": 115.923375,
    "Ele": 22.9
  },
  {
    "type": "medium_airport",
    "name": "Ningbo Zhuangqiao Air Base",
    "gps_code": "CN-0165",
    "freq": "",
    "Lat": 29.9228,
    "Lon": 121.573997,
    "Ele": 0.0
  },
  {
    "type": "small_airport",
    "name": "Alar Lanpowan Airport",
    "gps_code": "CN-0166",
    "freq": "",
    "Lat": 40.640982,
    "Lon": 81.273888,
    "Ele": 1010.1
  },
  {
    "type": "medium_airport",
    "name": "Shanghai Dachang Air Base",
    "gps_code": "CN-0169",
    "freq": "",
    "Lat": 31.324438,
    "Lon": 121.409508,
    "Ele": 0.0
  },
  {
    "type": "small_airport",
    "name": "Shijiazhuang Luancheng Airport",
    "gps_code": "CN-0177",
    "freq": "",
    "Lat": 37.91305,
    "Lon": 114.59166,
    "Ele": 60.0
  },
  {
    "type": "medium_airport",
    "name": "Wuhan Hannan Municipal Airport",
    "gps_code": "CN-0178",
    "freq": "",
    "Lat": 30.25521,
    "Lon": 114.062805,
    "Ele": 25.9
  },
  {
    "type": "small_airport",
    "name": "Baoji Lingyuan General Aviation Airport",
    "gps_code": "CN-0179",
    "freq": "",
    "Lat": 34.38946,
    "Lon": 107.12865,
    "Ele": 803.1
  },
  {
    "type": "small_airport",
    "name": "Xishanbei Airport",
    "gps_code": "CN-0180",
    "freq": "",
    "Lat": 39.14996,
    "Lon": 115.28795,
    "Ele": 0.0
  },
  {
    "type": "small_airport",
    "name": "Dingxing Airport",
    "gps_code": "CN-0181",
    "freq": "",
    "Lat": 39.25469,
    "Lon": 115.83329,
    "Ele": 0.0
  },
  {
    "type": "medium_airport",
    "name": "Zhangshu Air Base",
    "gps_code": "CN-0182",
    "freq": "",
    "Lat": 28.023283,
    "Lon": 115.549649,
    "Ele": 35.4
  },
  {
    "type": "small_airport",
    "name": "Zhangzhou Airfield",
    "gps_code": "CN-0183",
    "freq": "",
    "Lat": 24.561621,
    "Lon": 117.654665,
    "Ele": 0.0
  },
  {
    "type": "small_airport",
    "name": "Gaobeidian Airport",
    "gps_code": "CN-0184",
    "freq": "",
    "Lat": 39.36942,
    "Lon": 115.93992,
    "Ele": 0.0
  },
  {
    "type": "medium_airport",
    "name": "Changchun Air Base",
    "gps_code": "CN-0185",
    "freq": "",
    "Lat": 43.9053,
    "Lon": 125.197998,
    "Ele": 0.0
  },
  {
    "type": "small_airport",
    "name": "Zhuozhou Airport",
    "gps_code": "CN-0186",
    "freq": "",
    "Lat": 39.45692,
    "Lon": 116.00091,
    "Ele": 0.0
  },
  {
    "type": "medium_airport",
    "name": "Beijing Nanjiao Airport",
    "gps_code": "CN-0188",
    "freq": "",
    "Lat": 39.48595,
    "Lon": 116.37236,
    "Ele": 0.0
  },
  {
    "type": "medium_airport",
    "name": "Dingxin-Shuangchengzi Air Base",
    "gps_code": "CN-0190",
    "freq": "",
    "Lat": 40.401402,
    "Lon": 99.789398,
    "Ele": 0.0
  },
  {
    "type": "medium_airport",
    "name": "Fuxin Air Base",
    "gps_code": "CN-0191",
    "freq": "",
    "Lat": 42.078899,
    "Lon": 121.662003,
    "Ele": 0.0
  },
  {
    "type": "medium_airport",
    "name": "Gongzhuling Air Base",
    "gps_code": "CN-0192",
    "freq": "",
    "Lat": 43.526293,
    "Lon": 124.78466,
    "Ele": 0.0
  },
  {
    "type": "small_airport",
    "name": "Harbin Pingfang Airport",
    "gps_code": "CN-0193",
    "freq": "",
    "Lat": 45.59886,
    "Lon": 126.65808,
    "Ele": 0.0
  },
  {
    "type": "small_airport",
    "name": "Jinxi Air Base",
    "gps_code": "CN-0194",
    "freq": "",
    "Lat": 40.749199,
    "Lon": 120.878998,
    "Ele": 0.0
  },
  {
    "type": "small_airport",
    "name": "Liushuibao Airfield",
    "gps_code": "CN-0195",
    "freq": "",
    "Lat": 41.187138,
    "Lon": 121.167239,
    "Ele": 0.0
  },
  {
    "type": "medium_airport",
    "name": "Kaiyuan Air Base",
    "gps_code": "CN-0197",
    "freq": "",
    "Lat": 42.525799,
    "Lon": 123.982002,
    "Ele": 0.0
  },
  {
    "type": "medium_airport",
    "name": "Lalin Air Base",
    "gps_code": "CN-0198",
    "freq": "",
    "Lat": 45.259457,
    "Lon": 126.893536,
    "Ele": 0.0
  },
  {
    "type": "small_airport",
    "name": "Shanghai Gaodong Airport",
    "gps_code": "CN-0199",
    "freq": "",
    "Lat": 31.33396,
    "Lon": 121.62176,
    "Ele": 0.0
  },
  {
    "type": "small_airport",
    "name": "Xuzhou Jiulishan Air Base",
    "gps_code": "CN-0200",
    "freq": "",
    "Lat": 34.2879,
    "Lon": 117.1713,
    "Ele": 0.0
  },
  {
    "type": "medium_airport",
    "name": "Pingquan Air Base",
    "gps_code": "CN-0201",
    "freq": "",
    "Lat": 40.900409,
    "Lon": 118.677878,
    "Ele": 0.0
  },
  {
    "type": "small_airport",
    "name": "Datun Air Base",
    "gps_code": "CN-0203",
    "freq": "",
    "Lat": 43.73361,
    "Lon": 125.25333,
    "Ele": 0.0
  },
  {
    "type": "medium_airport",
    "name": "Shenyang Beiling Air Base",
    "gps_code": "CN-0204",
    "freq": "",
    "Lat": 41.8708,
    "Lon": 123.439003,
    "Ele": 0.0
  },
  {
    "type": "small_airport",
    "name": "Hefei Luogang Airport",
    "gps_code": "CN-0205",
    "freq": "",
    "Lat": 31.77999,
    "Lon": 117.29833,
    "Ele": 32.9
  },
  {
    "type": "medium_airport",
    "name": "Shenyang Yuhong Quansheng Airport",
    "gps_code": "CN-0206",
    "freq": "",
    "Lat": 41.822498,
    "Lon": 123.299004,
    "Ele": 0.0
  },
  {
    "type": "small_airport",
    "name": "Shuangcheng Air Base",
    "gps_code": "CN-0207",
    "freq": "",
    "Lat": 45.406874,
    "Lon": 126.320977,
    "Ele": 0.0
  },
  {
    "type": "medium_airport",
    "name": "Siping Air Base",
    "gps_code": "CN-0208",
    "freq": "",
    "Lat": 43.156898,
    "Lon": 124.292,
    "Ele": 0.0
  },
  {
    "type": "medium_airport",
    "name": "Suizhong Air Base",
    "gps_code": "CN-0209",
    "freq": "",
    "Lat": 40.298992,
    "Lon": 120.36152,
    "Ele": 13.1
  },
  {
    "type": "medium_airport",
    "name": "Tuchengzi Air Base",
    "gps_code": "CN-0210",
    "freq": "",
    "Lat": 38.912201,
    "Lon": 121.238998,
    "Ele": 0.0
  },
  {
    "type": "small_airport",
    "name": "Gaomi Air Base",
    "gps_code": "CN-0211",
    "freq": "",
    "Lat": 36.3875,
    "Lon": 119.71194,
    "Ele": 0.0
  },
  {
    "type": "small_airport",
    "name": "Guangshui Air Base",
    "gps_code": "CN-0213",
    "freq": "",
    "Lat": 31.6625,
    "Lon": 113.81777,
    "Ele": 0.0
  },
  {
    "type": "small_airport",
    "name": "Huangpi Air Base",
    "gps_code": "CN-0214",
    "freq": "",
    "Lat": 30.90205,
    "Lon": 114.51008,
    "Ele": 0.0
  },
  {
    "type": "small_airport",
    "name": "Sheyang General Airport",
    "gps_code": "CN-0215",
    "freq": "",
    "Lat": 33.79276,
    "Lon": 120.16497,
    "Ele": 0.0
  },
  {
    "type": "small_airport",
    "name": "Longkou Huangshan Airport",
    "gps_code": "CN-0216",
    "freq": "",
    "Lat": 37.55449,
    "Lon": 120.2724,
    "Ele": 6.1
  },
  {
    "type": "small_airport",
    "name": "Penglai Shahekou Airport",
    "gps_code": "CN-0217",
    "freq": "",
    "Lat": 37.80473,
    "Lon": 120.80954,
    "Ele": 6.1
  },
  {
    "type": "small_airport",
    "name": "Binzhou Dagao General Aviation Airport",
    "gps_code": "CN-0218",
    "freq": "",
    "Lat": 37.61055,
    "Lon": 117.885699,
    "Ele": 7.6
  },
  {
    "type": "small_airport",
    "name": "Jinan Pingyin Agricultural Airport",
    "gps_code": "CN-0219",
    "freq": "",
    "Lat": 36.296834,
    "Lon": 116.439802,
    "Ele": 39.9
  },
  {
    "type": "small_airport",
    "name": "Zibo Air Base",
    "gps_code": "CN-0220",
    "freq": "",
    "Lat": 36.80982,
    "Lon": 117.8922,
    "Ele": 39.9
  },
  {
    "type": "small_airport",
    "name": "Huanghua Fanghuang Airport",
    "gps_code": "CN-0221",
    "freq": "",
    "Lat": 38.41903,
    "Lon": 117.29877,
    "Ele": 4.0
  },
  {
    "type": "small_airport",
    "name": "Binhai Douzhuang Airport",
    "gps_code": "CN-0222",
    "freq": "",
    "Lat": 38.56417,
    "Lon": 117.31323,
    "Ele": 2.1
  },
  {
    "type": "small_airport",
    "name": "Tai'an Xinkaihe Airport",
    "gps_code": "CN-0223",
    "freq": "",
    "Lat": 41.3282,
    "Lon": 122.45557,
    "Ele": 7.9
  },
  {
    "type": "small_airport",
    "name": "Luhe Ma'an Airport",
    "gps_code": "CN-0224",
    "freq": "",
    "Lat": 32.37938,
    "Lon": 118.79465,
    "Ele": 24.1
  },
  {
    "type": "small_airport",
    "name": "Aksu Zhicheng Airport",
    "gps_code": "CN-0226",
    "freq": "",
    "Lat": 40.990059,
    "Lon": 80.094509,
    "Ele": 1106.1
  },
  {
    "type": "small_airport",
    "name": "Yizhou Test Range",
    "gps_code": "CN-0227",
    "freq": "",
    "Lat": 42.55217,
    "Lon": 94.21869,
    "Ele": 862.0
  },
  {
    "type": "small_airport",
    "name": "Linze Danxia Airport",
    "gps_code": "CN-0228",
    "freq": "",
    "Lat": 39.046062,
    "Lon": 100.168562,
    "Ele": 1551.1
  },
  {
    "type": "small_airport",
    "name": "Datong Qingshuihe Air Base",
    "gps_code": "CN-0229",
    "freq": "",
    "Lat": 39.93824,
    "Lon": 113.40345,
    "Ele": 1018.0
  },
  {
    "type": "small_airport",
    "name": "PLAAF Shijiazhiang Flight Academy",
    "gps_code": "CN-0230",
    "freq": "",
    "Lat": 38.08191,
    "Lon": 114.41804,
    "Ele": 86.0
  },
  {
    "type": "small_airport",
    "name": "Xinxiang Helicopter Air Base",
    "gps_code": "CN-0231",
    "freq": "",
    "Lat": 35.29336,
    "Lon": 113.83837,
    "Ele": 71.9
  },
  {
    "type": "small_airport",
    "name": "Xiantao General Airport",
    "gps_code": "CN-0232",
    "freq": "",
    "Lat": 30.40678,
    "Lon": 113.59485,
    "Ele": 0.0
  },
  {
    "type": "small_airport",
    "name": "Jiangning Tushan Air Base",
    "gps_code": "CN-0235",
    "freq": "",
    "Lat": 31.97139,
    "Lon": 118.8404,
    "Ele": 10.1
  },
  {
    "type": "medium_airport",
    "name": "Rikaze Dingri Airport",
    "gps_code": "CN-0236",
    "freq": "",
    "Lat": 28.604567,
    "Lon": 86.798,
    "Ele": 4300.1
  },
  {
    "type": "medium_airport",
    "name": "Tashikuergan Hongqilafu Airport",
    "gps_code": "CN-0237",
    "freq": "",
    "Lat": 37.661333,
    "Lon": 75.288877,
    "Ele": 3200.1
  },
  {
    "type": "small_airport",
    "name": "Dongyang Hengdian General Airport",
    "gps_code": "CN-0238",
    "freq": "",
    "Lat": 29.122619,
    "Lon": 120.24289,
    "Ele": 110.9
  },
  {
    "type": "small_airport",
    "name": "Jingmen Zhanghe General Airport",
    "gps_code": "CN-0241",
    "freq": "",
    "Lat": 30.985923,
    "Lon": 112.05368,
    "Ele": 138.4
  },
  {
    "type": "small_airport",
    "name": "Faku Caihu Airport",
    "gps_code": "CN-0242",
    "freq": "",
    "Lat": 42.390739,
    "Lon": 123.370464,
    "Ele": 87.2
  },
  {
    "type": "small_airport",
    "name": "Qindeli Farm Airport",
    "gps_code": "CN-0243",
    "freq": "",
    "Lat": 47.96256,
    "Lon": 133.18252,
    "Ele": 75.0
  },
  {
    "type": "small_airport",
    "name": "Chengdu Fenghuangshan Air Base",
    "gps_code": "CN-0244",
    "freq": "",
    "Lat": 30.73019,
    "Lon": 104.09282,
    "Ele": 506.0
  },
  {
    "type": "small_airport",
    "name": "Chengdu Taipingsi Airport",
    "gps_code": "CN-0245",
    "freq": "",
    "Lat": 30.60321,
    "Lon": 104.01766,
    "Ele": 492.6
  },
  {
    "type": "small_airport",
    "name": "Chongzhou Haoyun General Airport",
    "gps_code": "CN-0246",
    "freq": "",
    "Lat": 30.560102,
    "Lon": 103.730721,
    "Ele": 501.4
  },
  {
    "type": "small_airport",
    "name": "Chengdu Xinjin Airport",
    "gps_code": "CN-0247",
    "freq": "",
    "Lat": 30.4214,
    "Lon": 103.8444,
    "Ele": 460.9
  },
  {
    "type": "small_airport",
    "name": "Pengshan Air Base",
    "gps_code": "CN-0248",
    "freq": "",
    "Lat": 30.26485,
    "Lon": 103.8511,
    "Ele": 441.0
  },
  {
    "type": "small_airport",
    "name": "Yancheng Jianhu General Airport",
    "gps_code": "CN-0250",
    "freq": "",
    "Lat": 33.42127,
    "Lon": 119.72231,
    "Ele": 1.5
  },
  {
    "type": "small_airport",
    "name": "Xueye Aeronautics Technology Sports Park",
    "gps_code": "CN-0252",
    "freq": "",
    "Lat": 36.43788,
    "Lon": 117.56978,
    "Ele": 234.7
  },
  {
    "type": "small_airport",
    "name": "Jiande Qiandaohu General Airport",
    "gps_code": "CN-0253",
    "freq": "",
    "Lat": 29.360905,
    "Lon": 119.180829,
    "Ele": 75.9
  },
  {
    "type": "small_airport",
    "name": "Xinchang Wanfeng General Airport",
    "gps_code": "CN-0255",
    "freq": "",
    "Lat": 29.4535,
    "Lon": 121.0104,
    "Ele": 207.9
  },
  {
    "type": "small_airport",
    "name": "Xi'an Aerospace Base General Airport",
    "gps_code": "CN-0256",
    "freq": "",
    "Lat": 34.13324,
    "Lon": 108.9848,
    "Ele": 556.0
  },
  {
    "type": "small_airport",
    "name": "Wudalianchi Xingfu Airport",
    "gps_code": "CN-0258",
    "freq": "",
    "Lat": 48.73158,
    "Lon": 127.37618,
    "Ele": 385.9
  },
  {
    "type": "small_airport",
    "name": "Gannan Chahayang Airport",
    "gps_code": "CN-0261",
    "freq": "",
    "Lat": 48.20117,
    "Lon": 124.17853,
    "Ele": 180.1
  },
  {
    "type": "small_airport",
    "name": "Suibin Erjiuling Farm Airport",
    "gps_code": "CN-0262",
    "freq": "",
    "Lat": 47.57175,
    "Lon": 132.13077,
    "Ele": 60.0
  },
  {
    "type": "small_airport",
    "name": "Keshan Farm Airport",
    "gps_code": "CN-0263",
    "freq": "",
    "Lat": 48.30346,
    "Lon": 125.35989,
    "Ele": 302.1
  },
  {
    "type": "small_airport",
    "name": "Wudalianchi Longmen Airport",
    "gps_code": "CN-0264",
    "freq": "",
    "Lat": 48.91567,
    "Lon": 126.91011,
    "Ele": 388.9
  },
  {
    "type": "small_airport",
    "name": "Wudalianchi Longzhen General Airport",
    "gps_code": "CN-0265",
    "freq": "",
    "Lat": 48.65333,
    "Lon": 126.71333,
    "Ele": 306.0
  },
  {
    "type": "small_airport",
    "name": "Tongjiang Nongjiang Farm Airport",
    "gps_code": "CN-0266",
    "freq": "",
    "Lat": 47.736986,
    "Lon": 133.234103,
    "Ele": 61.9
  },
  {
    "type": "small_airport",
    "name": "Jiamusi Sanhetun General Airport",
    "gps_code": "CN-0267",
    "freq": "",
    "Lat": 46.79304,
    "Lon": 130.26974,
    "Ele": 85.0
  },
  {
    "type": "small_airport",
    "name": "Zhaodong Beidahuang General Airport",
    "gps_code": "CN-0268",
    "freq": "",
    "Lat": 46.12779,
    "Lon": 125.77354,
    "Ele": 143.0
  },
  {
    "type": "small_airport",
    "name": "Raohe Bawujiu Farm Airport",
    "gps_code": "CN-0269",
    "freq": "",
    "Lat": 47.45055,
    "Lon": 134.06924,
    "Ele": 66.1
  },
  {
    "type": "small_airport",
    "name": "Xinhe Qianfu Airport",
    "gps_code": "CN-0272",
    "freq": "",
    "Lat": 41.66629,
    "Lon": 82.58655,
    "Ele": 1028.1
  },
  {
    "type": "small_airport",
    "name": "Shihezi Tuoling Mengpo Airport",
    "gps_code": "CN-0273",
    "freq": "",
    "Lat": 45.042755,
    "Lon": 86.131661,
    "Ele": 341.1
  },
  {
    "type": "small_airport",
    "name": "Tiemenguan Shuangfeng Airport",
    "gps_code": "CN-0274",
    "freq": "",
    "Lat": 41.77703,
    "Lon": 85.44939,
    "Ele": 900.1
  },
  {
    "type": "small_airport",
    "name": "Tumxuk Hedong Airport",
    "gps_code": "CN-0275",
    "freq": "",
    "Lat": 39.43714,
    "Lon": 78.25212,
    "Ele": 1135.1
  },
  {
    "type": "small_airport",
    "name": "Xinyuan Gongnaisi Airport",
    "gps_code": "CN-0277",
    "freq": "",
    "Lat": 43.298872,
    "Lon": 84.161324,
    "Ele": 1535.0
  },
  {
    "type": "small_airport",
    "name": "Ürümqi Yaxin General Airport",
    "gps_code": "CN-0278",
    "freq": "",
    "Lat": 43.67233,
    "Lon": 87.32347,
    "Ele": 1306.1
  },
  {
    "type": "small_airport",
    "name": "Beitun Fengqing Airport",
    "gps_code": "CN-0279",
    "freq": "",
    "Lat": 47.22734,
    "Lon": 87.84022,
    "Ele": 538.9
  },
  {
    "type": "small_airport",
    "name": "Huyanghe Wuwu Airport",
    "gps_code": "CN-0280",
    "freq": "",
    "Lat": 44.885235,
    "Lon": 84.720739,
    "Ele": 302.1
  },
  {
    "type": "small_airport",
    "name": "Fuyun Tuerhong Airport",
    "gps_code": "CN-0281",
    "freq": "",
    "Lat": 47.03888,
    "Lon": 89.7825,
    "Ele": 0.0
  },
  {
    "type": "small_airport",
    "name": "Burqin Kaerqisi Airport",
    "gps_code": "CN-0282",
    "freq": "",
    "Lat": 47.6805,
    "Lon": 86.92763,
    "Ele": 487.1
  },
  {
    "type": "small_airport",
    "name": "Tekes Zhuque Airport",
    "gps_code": "CN-0283",
    "freq": "",
    "Lat": 43.20563,
    "Lon": 81.79847,
    "Ele": 0.0
  },
  {
    "type": "small_airport",
    "name": "Miyun/Mujiayu",
    "gps_code": "CN-0284",
    "freq": "",
    "Lat": 40.401005,
    "Lon": 116.881289,
    "Ele": 91.4
  },
  {
    "type": "small_airport",
    "name": "Xiqing General Aviation Airport",
    "gps_code": "CN-0287",
    "freq": "",
    "Lat": 19.55219,
    "Lon": 109.43658,
    "Ele": 124.1
  },
  {
    "type": "small_airport",
    "name": "Haikou Jiazi Airport",
    "gps_code": "CN-0288",
    "freq": "",
    "Lat": 19.67521,
    "Lon": 110.37968,
    "Ele": 39.9
  },
  {
    "type": "small_airport",
    "name": "Sanya Air Base",
    "gps_code": "CN-0290",
    "freq": "",
    "Lat": 18.28754,
    "Lon": 109.46372,
    "Ele": 9.1
  },
  {
    "type": "small_airport",
    "name": "Zhuhai Lianzhou General Airport",
    "gps_code": "CN-0291",
    "freq": "",
    "Lat": 22.33594,
    "Lon": 113.18911,
    "Ele": 0.3
  },
  {
    "type": "small_airport",
    "name": "Qingdao Cihang General Airport",
    "gps_code": "CN-0296",
    "freq": "",
    "Lat": 36.983261,
    "Lon": 120.268279,
    "Ele": 116.7
  },
  {
    "type": "small_airport",
    "name": "Taiyuan Yaocheng Airport",
    "gps_code": "CN-0300",
    "freq": "",
    "Lat": 37.50312,
    "Lon": 112.424126,
    "Ele": 0.0
  },
  {
    "type": "small_airport",
    "name": "Hegang Luobei Airport",
    "gps_code": "CN-0306",
    "freq": "",
    "Lat": 47.6144,
    "Lon": 131.39497,
    "Ele": 64.0
  },
  {
    "type": "medium_airport",
    "name": "Chenghu General Airport",
    "gps_code": "CN-0316",
    "freq": "129.050",
    "Lat": 31.215334,
    "Lon": 120.789328,
    "Ele": 10.1
  },
  {
    "type": "medium_airport",
    "name": "Anji Tianzihu General Airport",
    "gps_code": "CN-0321",
    "freq": "122.050",
    "Lat": 30.797725,
    "Lon": 119.590287,
    "Ele": 41.8
  },
  {
    "type": "small_airport",
    "name": "Wuerhe Airport",
    "gps_code": "CN-0329",
    "freq": "",
    "Lat": 46.01761,
    "Lon": 85.657436,
    "Ele": 345.6
  },
  {
    "type": "medium_airport",
    "name": "Jiuzhou Airport",
    "gps_code": "CN-0331",
    "freq": "",
    "Lat": 26.998259,
    "Lon": 107.759571,
    "Ele": 0.0
  },
  {
    "type": "small_airport",
    "name": "Industrial Airport 601",
    "gps_code": "CN-0332",
    "freq": "",
    "Lat": 32.389746,
    "Lon": 112.140112,
    "Ele": 0.0
  },
  {
    "type": "small_airport",
    "name": "Bayannur Ming'an Airport",
    "gps_code": "CN-0333",
    "freq": "",
    "Lat": 40.874146,
    "Lon": 109.577272,
    "Ele": 0.0
  },
  {
    "type": "small_airport",
    "name": "Runway 07",
    "gps_code": "CN-0336",
    "freq": "",
    "Lat": 34.763616,
    "Lon": 119.434175,
    "Ele": 0.0
  },
  {
    "type": "small_airport",
    "name": "Private Runway",
    "gps_code": "CN-0341",
    "freq": "",
    "Lat": 37.234774,
    "Lon": 79.34206,
    "Ele": 0.0
  },
  {
    "type": "small_airport",
    "name": "Military Heliport Runway (8x)",
    "gps_code": "CN-0342",
    "freq": "",
    "Lat": 36.343009,
    "Lon": 78.033335,
    "Ele": 0.0
  },
  {
    "type": "medium_airport",
    "name": "Paozhuwan Air Base",
    "gps_code": "CN-0344",
    "freq": "",
    "Lat": 30.673944,
    "Lon": 114.63089,
    "Ele": 0.0
  },
  {
    "type": "medium_airport",
    "name": "Shanpo Air Base",
    "gps_code": "CN-0345",
    "freq": "",
    "Lat": 30.087612,
    "Lon": 114.31366,
    "Ele": 0.0
  },
  {
    "type": "small_airport",
    "name": "Desert Runway",
    "gps_code": "CN-0346",
    "freq": "",
    "Lat": 39.010014,
    "Lon": 83.608618,
    "Ele": 0.0
  },
  {
    "type": "small_airport",
    "name": "Ganzhou Ruijin Airport",
    "gps_code": "CN-0347",
    "freq": "",
    "Lat": 25.960236,
    "Lon": 116.077016,
    "Ele": 228.6
  },
  {
    "type": "small_airport",
    "name": "Deser Military Airport",
    "gps_code": "CN-0351",
    "freq": "",
    "Lat": 40.767539,
    "Lon": 89.275245,
    "Ele": 0.0
  },
  {
    "type": "small_airport",
    "name": "Old Runway",
    "gps_code": "CN-0352",
    "freq": "",
    "Lat": 40.694827,
    "Lon": 89.075604,
    "Ele": 0.0
  },
  {
    "type": "medium_airport",
    "name": "Ali Pulan Airport",
    "gps_code": "CN-0354",
    "freq": "",
    "Lat": 30.397898,
    "Lon": 81.13317,
    "Ele": 4249.8
  },
  {
    "type": "small_airport",
    "name": "Beijing Dingling Airport",
    "gps_code": "CN-0357",
    "freq": "",
    "Lat": 40.28566,
    "Lon": 116.232675,
    "Ele": 107.0
  },
  {
    "type": "small_airport",
    "name": "Fuling Airfield",
    "gps_code": "CN-0358",
    "freq": "",
    "Lat": 29.659301,
    "Lon": 107.254987,
    "Ele": 0.0
  },
  {
    "type": "small_airport",
    "name": "Zhaosu Tianma Airport",
    "gps_code": "CN-0359",
    "freq": "",
    "Lat": 43.088477,
    "Lon": 81.223013,
    "Ele": 0.0
  },
  {
    "type": "small_airport",
    "name": "Urad Front Banner Gongmiaozi Airport",
    "gps_code": "CN-0360",
    "freq": "",
    "Lat": 40.614366,
    "Lon": 108.998835,
    "Ele": 1026.9
  },
  {
    "type": "small_airport",
    "name": "Dengkou General Aviation Airport",
    "gps_code": "CN-0361",
    "freq": "",
    "Lat": 40.302832,
    "Lon": 107.010698,
    "Ele": 1054.0
  },
  {
    "type": "small_airport",
    "name": "Yinchuan Yueyahu Airport",
    "gps_code": "CN-0362",
    "freq": "",
    "Lat": 38.588095,
    "Lon": 106.539788,
    "Ele": 1136.0
  },
  {
    "type": "small_airport",
    "name": "Shuangchengzi North Airfield",
    "gps_code": "CN-0363",
    "freq": "",
    "Lat": 40.5392,
    "Lon": 100.0185,
    "Ele": 1128.1
  },
  {
    "type": "small_airport",
    "name": "Gaotai Airport",
    "gps_code": "CN-0364",
    "freq": "",
    "Lat": 39.41188,
    "Lon": 99.77868,
    "Ele": 1342.0
  },
  {
    "type": "small_airport",
    "name": "Zhangpu Air Base",
    "gps_code": "CN-0374",
    "freq": "",
    "Lat": 24.0452,
    "Lon": 117.8497,
    "Ele": 25.9
  },
  {
    "type": "small_airport",
    "name": "Changchun Yushu General Airport",
    "gps_code": "CN-0377",
    "freq": "",
    "Lat": 44.829507,
    "Lon": 126.421423,
    "Ele": 0.0
  },
  {
    "type": "small_airport",
    "name": "Panjin Chenjia General Airport",
    "gps_code": "CN-0378",
    "freq": "",
    "Lat": 41.269306,
    "Lon": 122.141361,
    "Ele": 0.0
  },
  {
    "type": "small_airport",
    "name": "Mile Dongfeng Airport",
    "gps_code": "CN-0383",
    "freq": "",
    "Lat": 24.2956,
    "Lon": 103.40847,
    "Ele": 0.0
  },
  {
    "type": "small_airport",
    "name": "Longchuan Guangsong Airport",
    "gps_code": "CN-0384",
    "freq": "",
    "Lat": 24.26652,
    "Lon": 97.9048,
    "Ele": 1004.9
  },
  {
    "type": "small_airport",
    "name": "Lanping Fenghua General Airport",
    "gps_code": "CN-0385",
    "freq": "",
    "Lat": 26.64518,
    "Lon": 99.54419,
    "Ele": 2522.5
  },
  {
    "type": "small_airport",
    "name": "Zhanjiang Jiushashi Airport",
    "gps_code": "CN-0394",
    "freq": "",
    "Lat": 21.25491,
    "Lon": 109.79244,
    "Ele": 0.0
  },
  {
    "type": "medium_airport",
    "name": "Shaodong Airport",
    "gps_code": "CN-0396",
    "freq": "",
    "Lat": 27.2235,
    "Lon": 111.6741,
    "Ele": 0.0
  },
  {
    "type": "medium_airport",
    "name": "Ningxiang Airport",
    "gps_code": "CN-0401",
    "freq": "",
    "Lat": 27.987589,
    "Lon": 112.604971,
    "Ele": 0.0
  },
  {
    "type": "small_airport",
    "name": "Fanhu Airport",
    "gps_code": "CN-0403",
    "freq": "",
    "Lat": 23.31635,
    "Lon": 112.96416,
    "Ele": 7.9
  },
  {
    "type": "small_airport",
    "name": "Shidaojiao",
    "gps_code": "CN-0404",
    "freq": "",
    "Lat": 36.47054,
    "Lon": 120.951246,
    "Ele": 0.0
  },
  {
    "type": "small_airport",
    "name": "East Red Airport",
    "gps_code": "CN-0407",
    "freq": "",
    "Lat": 24.170412,
    "Lon": 114.799213,
    "Ele": 0.0
  },
  {
    "type": "small_airport",
    "name": "Bozhou Airport (under construction)",
    "gps_code": "CN-0413",
    "freq": "",
    "Lat": 33.560777,
    "Lon": 115.911859,
    "Ele": 0.0
  },
  {
    "type": "small_airport",
    "name": "Bailing Airport",
    "gps_code": "CN-0414",
    "freq": "",
    "Lat": 41.656944,
    "Lon": 110.3125,
    "Ele": 1415.8
  },
  {
    "type": "small_airport",
    "name": "Hejing Bayinbuluke Airport",
    "gps_code": "CN-0415",
    "freq": "",
    "Lat": 42.976395,
    "Lon": 83.995543,
    "Ele": 2505.2
  },
  {
    "type": "small_airport",
    "name": "Otog Front Banner Oljoq Airport",
    "gps_code": "CN-0416",
    "freq": "",
    "Lat": 38.1712,
    "Lon": 107.3905,
    "Ele": 0.0
  },
  {
    "type": "small_airport",
    "name": "Qitai Jiangbulake Airport",
    "gps_code": "CN-0417",
    "freq": "",
    "Lat": 44.166086,
    "Lon": 89.55014,
    "Ele": 0.0
  },
  {
    "type": "small_airport",
    "name": "Hohhot Shengle International Airport (under construction)",
    "gps_code": "CN-0418",
    "freq": "",
    "Lat": 40.480965,
    "Lon": 111.575174,
    "Ele": 0.0
  },
  {
    "type": "small_airport",
    "name": "Zaozhuang Yiyun Airport (under construction)",
    "gps_code": "CN-0419",
    "freq": "",
    "Lat": 34.9074,
    "Lon": 117.408,
    "Ele": 0.0
  },
  {
    "type": "small_airport",
    "name": "Honghe Mengzi Airport (under construction)",
    "gps_code": "CN-0420",
    "freq": "",
    "Lat": 23.464782,
    "Lon": 103.347487,
    "Ele": 0.0
  },
  {
    "type": "small_airport",
    "name": "Zhaotong Zhaoyang Airport (under construction)",
    "gps_code": "CN-0421",
    "freq": "",
    "Lat": 27.2117,
    "Lon": 103.6993,
    "Ele": 0.0
  },
  {
    "type": "small_airport",
    "name": "Lishui Airport",
    "gps_code": "CN-0422",
    "freq": "",
    "Lat": 28.3727,
    "Lon": 119.839,
    "Ele": 0.0
  },
  {
    "type": "small_airport",
    "name": "Nanchang Yaohu Airport",
    "gps_code": "CN-0423",
    "freq": "",
    "Lat": 28.700972,
    "Lon": 116.107694,
    "Ele": 0.0
  },
  {
    "type": "small_airport",
    "name": "Huhe Tata Airport",
    "gps_code": "CN-0426",
    "freq": "",
    "Lat": 39.665872,
    "Lon": 105.464137,
    "Ele": 0.0
  },
  {
    "type": "small_airport",
    "name": "Otog Banner Wulan Airport",
    "gps_code": "CN-0427",
    "freq": "",
    "Lat": 39.03139,
    "Lon": 107.98889,
    "Ele": 1348.1
  },
  {
    "type": "small_airport",
    "name": "Gujiatun Air Base",
    "gps_code": "CN-0428",
    "freq": "",
    "Lat": 39.26611,
    "Lon": 122.07957,
    "Ele": 0.0
  },
  {
    "type": "small_airport",
    "name": "E’Tuo Ke Qian Qi general airport",
    "gps_code": "CN-0429",
    "freq": "",
    "Lat": 38.101538,
    "Lon": 107.232569,
    "Ele": 1354.5
  },
  {
    "type": "small_airport",
    "name": "Taizhou Bay Airport",
    "gps_code": "CN-0432",
    "freq": "",
    "Lat": 28.572398,
    "Lon": 121.576485,
    "Ele": 0.0
  },
  {
    "type": "small_airport",
    "name": "China Aviation Museum Airfield",
    "gps_code": "CN-0434",
    "freq": "",
    "Lat": 40.186433,
    "Lon": 116.360309,
    "Ele": 43.0
  },
  {
    "type": "small_airport",
    "name": "Jinzhou Xiaolingzi Air Base",
    "gps_code": "CN-0441",
    "freq": "",
    "Lat": 41.101398,
    "Lon": 121.061996,
    "Ele": 0.0
  },
  {
    "type": "small_airport",
    "name": "Yantai Laishan Airport",
    "gps_code": "CN-0443",
    "freq": "118.450",
    "Lat": 37.396825,
    "Lon": 121.369571,
    "Ele": 18.0
  },
  {
    "type": "small_airport",
    "name": "Baitabu Air Base",
    "gps_code": "CN-0444",
    "freq": "",
    "Lat": 34.571302,
    "Lon": 118.873143,
    "Ele": 0.0
  },
  {
    "type": "medium_airport",
    "name": "Jining Qufu Airport",
    "gps_code": "CN-0446",
    "freq": "",
    "Lat": 35.292778,
    "Lon": 116.346667,
    "Ele": 40.8
  },
  {
    "type": "small_airport",
    "name": "Jingbian Haizetan Airport",
    "gps_code": "CN-0467",
    "freq": "",
    "Lat": 37.76514,
    "Lon": 108.847615,
    "Ele": 1310.0
  },
  {
    "type": "small_airport",
    "name": "Shuimen Airbase",
    "gps_code": "CN-0469",
    "freq": "",
    "Lat": 26.941602,
    "Lon": 120.077384,
    "Ele": 0.0
  },
  {
    "type": "small_airport",
    "name": "Zhuzhou Lusong Airport",
    "gps_code": "CN-0470",
    "freq": "",
    "Lat": 27.771768,
    "Lon": 113.207248,
    "Ele": 70.4
  },
  {
    "type": "small_airport",
    "name": "Hump Tongyong Aviation",
    "gps_code": "CN-0471",
    "freq": "",
    "Lat": 30.846557,
    "Lon": 103.61043,
    "Ele": 632.2
  },
  {
    "type": "small_airport",
    "name": "Rizhao City Lanshan General Airport",
    "gps_code": "CN-0472",
    "freq": "",
    "Lat": 35.087326,
    "Lon": 119.300545,
    "Ele": 0.9
  },
  {
    "type": "small_airport",
    "name": "Jiande Hospital Heliport",
    "gps_code": "CN-0473",
    "freq": "",
    "Lat": 29.345012,
    "Lon": 119.198245,
    "Ele": 53.9
  },
  {
    "type": "medium_airport",
    "name": "Bengbu Tenghu Airport (U.C.)",
    "gps_code": "CN-0476",
    "freq": "",
    "Lat": 33.165808,
    "Lon": 117.057295,
    "Ele": 21.9
  },
  {
    "type": "small_airport",
    "name": "Baoquanling General Airport",
    "gps_code": "CN-0477",
    "freq": "",
    "Lat": 47.41079,
    "Lon": 130.61054,
    "Ele": 0.0
  },
  {
    "type": "small_airport",
    "name": "Urumqi Xishan Airport",
    "gps_code": "CN-0478",
    "freq": "",
    "Lat": 43.772537,
    "Lon": 87.372819,
    "Ele": 1033.0
  },
  {
    "type": "small_airport",
    "name": "Neixiang",
    "gps_code": "CN-0479",
    "freq": "",
    "Lat": 32.977467,
    "Lon": 111.881872,
    "Ele": 0.0
  },
  {
    "type": "medium_airport",
    "name": "Sanshilipu Air Base",
    "gps_code": "CN-JNZ",
    "freq": "",
    "Lat": 39.289671,
    "Lon": 121.762195,
    "Ele": 0.0
  },
  {
    "type": "small_airport",
    "name": "Deqing Moganshan Airport",
    "gps_code": "DEQ",
    "freq": "",
    "Lat": 30.504264,
    "Lon": 120.107388,
    "Ele": 0.0
  },
  {
    "type": "small_airport",
    "name": "Ejin Banner Taolai Airport",
    "gps_code": "EJN",
    "freq": "",
    "Lat": 42.0155,
    "Lon": 101.0005,
    "Ele": 937.9
  },
  {
    "type": "small_airport",
    "name": "Zhengzhou Shangjie Airport",
    "gps_code": "HSJ",
    "freq": "",
    "Lat": 34.842153,
    "Lon": 113.273983,
    "Ele": 137.2
  },
  {
    "type": "medium_airport",
    "name": "Chengdu Huaizhou Airport",
    "gps_code": "HZU",
    "freq": "",
    "Lat": 30.677339,
    "Lon": 104.529397,
    "Ele": 442.9
  },
  {
    "type": "small_airport",
    "name": "Chizhou Jiuhuashan Airport",
    "gps_code": "JUH",
    "freq": "",
    "Lat": 30.7403,
    "Lon": 117.6856,
    "Ele": 18.3
  },
  {
    "type": "small_airport",
    "name": "Linfen Yaomiao Airport",
    "gps_code": "LFQ",
    "freq": "",
    "Lat": 36.041083,
    "Lon": 111.491683,
    "Ele": 0.0
  },
  {
    "type": "medium_airport",
    "name": "Langzhong Gucheng Airport",
    "gps_code": "LZG",
    "freq": "",
    "Lat": 31.50191,
    "Lon": 106.034417,
    "Ele": 440.1
  },
  {
    "type": "small_airport",
    "name": "Nenjiang Melgen Airport",
    "gps_code": "NJJ",
    "freq": "",
    "Lat": 49.236372,
    "Lon": 125.337052,
    "Ele": 243.8
  },
  {
    "type": "medium_airport",
    "name": "Ninglang Luguhu Airport",
    "gps_code": "NLH",
    "freq": "",
    "Lat": 27.5403,
    "Lon": 100.7593,
    "Ele": 3293.1
  },
  {
    "type": "small_airport",
    "name": "Alxa Right Banner Badanjilin Airport",
    "gps_code": "RHT",
    "freq": "",
    "Lat": 39.225,
    "Lon": 101.546,
    "Ele": 1420.1
  },
  {
    "type": "small_airport",
    "name": "Tumxuk Tangwangcheng Airport",
    "gps_code": "TWC",
    "freq": "",
    "Lat": 39.886663,
    "Lon": 79.233408,
    "Ele": 1086.9
  },
  {
    "type": "small_airport",
    "name": "Urad Middle Banner Airport",
    "gps_code": "WZQ",
    "freq": "",
    "Lat": 41.460289,
    "Lon": 108.539085,
    "Ele": 1218.0
  },
  {
    "type": "small_airport",
    "name": "New Barag Right Banner Baogede Airport",
    "gps_code": "XRQ",
    "freq": "",
    "Lat": 48.575585,
    "Lon": 116.939382,
    "Ele": 548.0
  },
  {
    "type": "small_airport",
    "name": "Yinchuan Helanshan Air Base",
    "gps_code": "YEH",
    "freq": "",
    "Lat": 38.481899,
    "Lon": 106.009003,
    "Ele": 1149.1
  },
  {
    "type": "small_airport",
    "name": "Yongchuan Da'an General Airport",
    "gps_code": "YGA",
    "freq": "",
    "Lat": 29.356667,
    "Lon": 106.010441,
    "Ele": 344.7
  },
  {
    "type": "large_airport",
    "name": "Beijing Capital International Airport",
    "gps_code": "ZBAA",
    "freq": "119.600",
    "Lat": 40.0801010131836,
    "Lon": 116.58499908447266,
    "Ele": 35.4
  },
  {
    "type": "large_airport",
    "name": "Beijing Daxing International Airport",
    "gps_code": "ZBAD",
    "freq": "126.100",
    "Lat": 39.509945,
    "Lon": 116.41092,
    "Ele": 29.9
  },
  {
    "type": "medium_airport",
    "name": "Beijing Xijiao Airport",
    "gps_code": "ZBBB",
    "freq": "125.900",
    "Lat": 39.958592,
    "Lon": 116.256765,
    "Ele": 50.0
  },
  {
    "type": "medium_airport",
    "name": "Chengde Puning Airport",
    "gps_code": "ZBCD",
    "freq": "",
    "Lat": 41.1225,
    "Lon": 118.073889,
    "Ele": 0.0
  },
  {
    "type": "medium_airport",
    "name": "Chifeng Yulong Airport",
    "gps_code": "ZBCF",
    "freq": "",
    "Lat": 42.159723,
    "Lon": 118.840971,
    "Ele": 615.1
  },
  {
    "type": "small_airport",
    "name": "Changzhi Wangcun Airport",
    "gps_code": "ZBCZ",
    "freq": "",
    "Lat": 36.247501,
    "Lon": 113.125999,
    "Ele": 0.0
  },
  {
    "type": "medium_airport",
    "name": "Qinhuangdao Beidaihe Airport",
    "gps_code": "ZBDH",
    "freq": "",
    "Lat": 39.666384,
    "Lon": 119.061384,
    "Ele": 14.0
  },
  {
    "type": "medium_airport",
    "name": "Ordos Ejin Horo Airport",
    "gps_code": "ZBDS",
    "freq": "126.800",
    "Lat": 39.493514,
    "Lon": 109.8599,
    "Ele": 1389.0
  },
  {
    "type": "small_airport",
    "name": "Datong Yungang Airport",
    "gps_code": "ZBDT",
    "freq": "",
    "Lat": 40.061614,
    "Lon": 113.480032,
    "Ele": 1049.1
  },
  {
    "type": "medium_airport",
    "name": "Erenhot Saiwusu International Airport",
    "gps_code": "ZBER",
    "freq": "",
    "Lat": 43.4225,
    "Lon": 112.096667,
    "Ele": 1006.1
  },
  {
    "type": "medium_airport",
    "name": "Arxan Yi'ershi Airport",
    "gps_code": "ZBES",
    "freq": "",
    "Lat": 47.3106,
    "Lon": 119.9117,
    "Ele": 891.5
  },
  {
    "type": "medium_airport",
    "name": "Handan Airport",
    "gps_code": "ZBHD",
    "freq": "",
    "Lat": 36.525833,
    "Lon": 114.425556,
    "Ele": 69.8
  },
  {
    "type": "large_airport",
    "name": "Hohhot Baita International Airport",
    "gps_code": "ZBHH",
    "freq": "126.250",
    "Lat": 40.849658,
    "Lon": 111.824598,
    "Ele": 1083.9
  },
  {
    "type": "medium_airport",
    "name": "Holingol Huolinhe Airport",
    "gps_code": "ZBHZ",
    "freq": "",
    "Lat": 45.487222,
    "Lon": 119.407222,
    "Ele": 0.0
  },
  {
    "type": "medium_airport",
    "name": "Hulunbuir Hailar Airport",
    "gps_code": "ZBLA",
    "freq": "118.100",
    "Lat": 49.205002,
    "Lon": 119.824997,
    "Ele": 661.1
  },
  {
    "type": "medium_airport",
    "name": "Linfen Yaodu Airport",
    "gps_code": "ZBLF",
    "freq": "",
    "Lat": 36.132629,
    "Lon": 111.641236,
    "Ele": 452.0
  },
  {
    "type": "medium_airport",
    "name": "Lüliang Dawu Airport",
    "gps_code": "ZBLL",
    "freq": "",
    "Lat": 37.683333,
    "Lon": 111.142778,
    "Ele": 0.0
  },
  {
    "type": "medium_airport",
    "name": "Manzhouli Xijiao Airport",
    "gps_code": "ZBMZ",
    "freq": "",
    "Lat": 49.566667,
    "Lon": 117.33,
    "Ele": 680.0
  },
  {
    "type": "medium_airport",
    "name": "Baotou Donghe Airport",
    "gps_code": "ZBOW",
    "freq": "",
    "Lat": 40.560001,
    "Lon": 109.997002,
    "Ele": 1012.2
  },
  {
    "type": "small_airport",
    "name": "Shuozhou Zirun Airport",
    "gps_code": "ZBSG",
    "freq": "",
    "Lat": 39.273241,
    "Lon": 112.691552,
    "Ele": 0.0
  },
  {
    "type": "small_airport",
    "name": "Qinhuangdao Shanhaiguan Airport",
    "gps_code": "ZBSH",
    "freq": "",
    "Lat": 39.968679,
    "Lon": 119.730635,
    "Ele": 9.1
  },
  {
    "type": "medium_airport",
    "name": "Shijiazhuang Zhengding International Airport",
    "gps_code": "ZBSJ",
    "freq": "118.350",
    "Lat": 38.280701,
    "Lon": 114.696999,
    "Ele": 71.0
  },
  {
    "type": "small_airport",
    "name": "Tangshan Sannühe Airport",
    "gps_code": "ZBSN",
    "freq": "",
    "Lat": 39.7178,
    "Lon": 118.002625,
    "Ele": 15.2
  },
  {
    "type": "small_airport",
    "name": "Tianjin Tanggu Airport",
    "gps_code": "ZBTG",
    "freq": "",
    "Lat": 38.898114,
    "Lon": 117.657244,
    "Ele": 0.0
  },
  {
    "type": "large_airport",
    "name": "Tianjin Binhai International Airport",
    "gps_code": "ZBTJ",
    "freq": "118.200",
    "Lat": 39.1244010925,
    "Lon": 117.346000671,
    "Ele": 3.0
  },
  {
    "type": "medium_airport",
    "name": "Tongliao Airport",
    "gps_code": "ZBTL",
    "freq": "",
    "Lat": 43.556702,
    "Lon": 122.199997,
    "Ele": 730.0
  },
  {
    "type": "medium_airport",
    "name": "Ulanqab Jining Airport",
    "gps_code": "ZBUC",
    "freq": "",
    "Lat": 41.130266,
    "Lon": 113.107274,
    "Ele": 0.0
  },
  {
    "type": "small_airport",
    "name": "Wuhai Airport",
    "gps_code": "ZBUH",
    "freq": "329.300",
    "Lat": 39.7934,
    "Lon": 106.7993,
    "Ele": 1112.5
  },
  {
    "type": "small_airport",
    "name": "Ulanhot Yilelite Airport",
    "gps_code": "ZBUL",
    "freq": "",
    "Lat": 46.195333,
    "Lon": 122.008333,
    "Ele": 0.0
  },
  {
    "type": "small_airport",
    "name": "Ruad Zhongqi Hailiutu Airport",
    "gps_code": "ZBUT",
    "freq": "",
    "Lat": 41.694354,
    "Lon": 108.378439,
    "Ele": 1424.9
  },
  {
    "type": "medium_airport",
    "name": "Xilinhot Airport",
    "gps_code": "ZBXH",
    "freq": "",
    "Lat": 43.91559982299805,
    "Lon": 115.96399688720705,
    "Ele": 0.0
  },
  {
    "type": "small_airport",
    "name": "Xingtai Dalian Airport",
    "gps_code": "ZBXT",
    "freq": "",
    "Lat": 36.8831,
    "Lon": 114.4293,
    "Ele": 85.3
  },
  {
    "type": "small_airport",
    "name": "Xinzhou Wutaishan Airport",
    "gps_code": "ZBXZ",
    "freq": "",
    "Lat": 38.597456,
    "Lon": 112.969173,
    "Ele": 770.2
  },
  {
    "type": "medium_airport",
    "name": "Yuncheng Zhangxiao Airport",
    "gps_code": "ZBYC",
    "freq": "",
    "Lat": 35.116391,
    "Lon": 111.031389,
    "Ele": 378.6
  },
  {
    "type": "large_airport",
    "name": "Taiyuan Wusu International Airport",
    "gps_code": "ZBYN",
    "freq": "118.250",
    "Lat": 37.746899,
    "Lon": 112.627998,
    "Ele": 784.9
  },
  {
    "type": "medium_airport",
    "name": "Bayannur Tianjitai Airport",
    "gps_code": "ZBYZ",
    "freq": "",
    "Lat": 40.926,
    "Lon": 107.7428,
    "Ele": 1036.3
  },
  {
    "type": "medium_airport",
    "name": "Zhangjiakou Ningyuan Airport",
    "gps_code": "ZBZJ",
    "freq": "",
    "Lat": 40.738602,
    "Lon": 114.930278,
    "Ele": 715.4
  },
  {
    "type": "medium_airport",
    "name": "Zhalantun Genghis Khan Airport",
    "gps_code": "ZBZL",
    "freq": "",
    "Lat": 47.865942,
    "Lon": 122.768662,
    "Ele": 282.9
  },
  {
    "type": "medium_airport",
    "name": "Beihai Fucheng Airport",
    "gps_code": "ZGBH",
    "freq": "",
    "Lat": 21.5394,
    "Lon": 109.293999,
    "Ele": 22.9
  },
  {
    "type": "medium_airport",
    "name": "Baise (Bose) Bama Airport",
    "gps_code": "ZGBS",
    "freq": "",
    "Lat": 23.7206,
    "Lon": 106.959999,
    "Ele": 149.4
  },
  {
    "type": "medium_airport",
    "name": "Changde Taohuayuan Airport",
    "gps_code": "ZGCD",
    "freq": "",
    "Lat": 28.9189,
    "Lon": 111.639999,
    "Ele": 39.0
  },
  {
    "type": "medium_airport",
    "name": "Huaihua Zhijiang Airport",
    "gps_code": "ZGCJ",
    "freq": "",
    "Lat": 27.443087,
    "Lon": 109.704666,
    "Ele": 268.8
  },
  {
    "type": "medium_airport",
    "name": "Chenzhou Beihu Airport",
    "gps_code": "ZGCZ",
    "freq": "",
    "Lat": 25.753419,
    "Lon": 112.845404,
    "Ele": 326.4
  },
  {
    "type": "small_airport",
    "name": "Zhangjiajie Hehua International Airport",
    "gps_code": "ZGDY",
    "freq": "",
    "Lat": 29.1028,
    "Lon": 110.443001,
    "Ele": 2599.9
  },
  {
    "type": "medium_airport",
    "name": "Foshan Shadi Airport",
    "gps_code": "ZGFS",
    "freq": "",
    "Lat": 23.0825,
    "Lon": 113.070833,
    "Ele": 1.8
  },
  {
    "type": "large_airport",
    "name": "Guangzhou Baiyun International Airport",
    "gps_code": "ZGGG",
    "freq": "120.400",
    "Lat": 23.392401,
    "Lon": 113.299004,
    "Ele": 15.2
  },
  {
    "type": "large_airport",
    "name": "Changsha Huanghua International Airport",
    "gps_code": "ZGHA",
    "freq": "119.650",
    "Lat": 28.189199,
    "Lon": 113.220001,
    "Ele": 66.1
  },
  {
    "type": "medium_airport",
    "name": "Hechi Jinchengjiang Airport",
    "gps_code": "ZGHC",
    "freq": "",
    "Lat": 24.804344,
    "Lon": 107.710819,
    "Ele": 677.0
  },
  {
    "type": "small_airport",
    "name": "Hengyang Nanyue Airport",
    "gps_code": "ZGHY",
    "freq": "",
    "Lat": 26.72208,
    "Lon": 112.617958,
    "Ele": 0.0
  },
  {
    "type": "medium_airport",
    "name": "Huizhou Pingtan Airport",
    "gps_code": "ZGHZ",
    "freq": "",
    "Lat": 23.049999,
    "Lon": 114.599998,
    "Ele": 15.2
  },
  {
    "type": "large_airport",
    "name": "Guilin Liangjiang International Airport",
    "gps_code": "ZGKL",
    "freq": "126.450",
    "Lat": 25.219828,
    "Lon": 110.039553,
    "Ele": 173.7
  },
  {
    "type": "small_airport",
    "name": "Luoding Sulong Airport",
    "gps_code": "ZGLD",
    "freq": "",
    "Lat": 22.711169,
    "Lon": 111.60134,
    "Ele": 57.9
  },
  {
    "type": "medium_airport",
    "name": "Yongzhou Lingling Airport",
    "gps_code": "ZGLG",
    "freq": "",
    "Lat": 26.338661,
    "Lon": 111.610043,
    "Ele": 103.6
  },
  {
    "type": "small_airport",
    "name": "Meizhou Meixian Changgangji International Airport",
    "gps_code": "ZGMX",
    "freq": "",
    "Lat": 24.263425,
    "Lon": 116.097857,
    "Ele": 95.1
  },
  {
    "type": "large_airport",
    "name": "Nanning Wuxu Airport",
    "gps_code": "ZGNN",
    "freq": "121.750",
    "Lat": 22.608544,
    "Lon": 108.175335,
    "Ele": 128.3
  },
  {
    "type": "medium_airport",
    "name": "Jieyang Chaoshan International Airport",
    "gps_code": "ZGOW",
    "freq": "",
    "Lat": 23.552,
    "Lon": 116.5033,
    "Ele": 0.0
  },
  {
    "type": "medium_airport",
    "name": "Zhuhai Jinwan Airport",
    "gps_code": "ZGSD",
    "freq": "",
    "Lat": 22.006399,
    "Lon": 113.375999,
    "Ele": 7.0
  },
  {
    "type": "medium_airport",
    "name": "Shaoyang Wugang Airport",
    "gps_code": "ZGSY",
    "freq": "",
    "Lat": 26.806123,
    "Lon": 110.641042,
    "Ele": 440.1
  },
  {
    "type": "large_airport",
    "name": "Shenzhen Bao'an International Airport",
    "gps_code": "ZGSZ",
    "freq": "120.350",
    "Lat": 22.639299,
    "Lon": 113.810997,
    "Ele": 4.0
  },
  {
    "type": "medium_airport",
    "name": "Wuzhou Xijiang Airport",
    "gps_code": "ZGWZ",
    "freq": "",
    "Lat": 23.40316,
    "Lon": 111.09331,
    "Ele": 108.8
  },
  {
    "type": "small_airport",
    "name": "Xingning Air Base",
    "gps_code": "ZGXN",
    "freq": "",
    "Lat": 24.1492,
    "Lon": 115.758003,
    "Ele": 0.0
  },
  {
    "type": "small_airport",
    "name": "Xiangxi Biancheng Airport",
    "gps_code": "ZGXX",
    "freq": "",
    "Lat": 28.4972,
    "Lon": 109.5218,
    "Ele": 0.0
  },
  {
    "type": "small_airport",
    "name": "Yangjiang Heshan Airport",
    "gps_code": "ZGYJ",
    "freq": "",
    "Lat": 21.961895,
    "Lon": 112.102408,
    "Ele": 10.1
  },
  {
    "type": "medium_airport",
    "name": "Yulin Fumian Airport",
    "gps_code": "ZGYL",
    "freq": "",
    "Lat": 22.438056,
    "Lon": 110.120833,
    "Ele": 100.0
  },
  {
    "type": "medium_airport",
    "name": "Yueyang Sanhe Airport",
    "gps_code": "ZGYY",
    "freq": "",
    "Lat": 29.311699,
    "Lon": 113.281574,
    "Ele": 70.1
  },
  {
    "type": "medium_airport",
    "name": "Liuzhou Bailian Airport / Bailian Air Base",
    "gps_code": "ZGZH",
    "freq": "",
    "Lat": 24.2075,
    "Lon": 109.390999,
    "Ele": 89.9
  },
  {
    "type": "medium_airport",
    "name": "Zhanjiang Wuchuan Airport",
    "gps_code": "ZGZJ",
    "freq": "",
    "Lat": 21.481667,
    "Lon": 110.590278,
    "Ele": 0.0
  },
  {
    "type": "small_airport",
    "name": "Anyang Yindu Airport",
    "gps_code": "ZHAY",
    "freq": "",
    "Lat": 36.1339,
    "Lon": 114.344002,
    "Ele": 0.0
  },
  {
    "type": "large_airport",
    "name": "Zhengzhou Xinzheng International Airport",
    "gps_code": "ZHCC",
    "freq": "128.450",
    "Lat": 34.526497,
    "Lon": 113.849165,
    "Ele": 150.9
  },
  {
    "type": "large_airport",
    "name": "Ezhou Huahu Airport",
    "gps_code": "ZHEC",
    "freq": "",
    "Lat": 30.341178,
    "Lon": 115.03926,
    "Ele": 26.2
  },
  {
    "type": "medium_airport",
    "name": "Enshi Xujiaping Airport",
    "gps_code": "ZHES",
    "freq": "",
    "Lat": 30.320299,
    "Lon": 109.485001,
    "Ele": 489.2
  },
  {
    "type": "medium_airport",
    "name": "Guangzhou MR Air Base / Guanghua Airport",
    "gps_code": "ZHGH",
    "freq": "",
    "Lat": 32.38866,
    "Lon": 111.69425,
    "Ele": 0.0
  },
  {
    "type": "large_airport",
    "name": "Wuhan Tianhe International Airport",
    "gps_code": "ZHHH",
    "freq": "126.600",
    "Lat": 30.774798,
    "Lon": 114.213723,
    "Ele": 34.4
  },
  {
    "type": "medium_airport",
    "name": "Jingzhou Shashi Airport",
    "gps_code": "ZHJZ",
    "freq": "",
    "Lat": 30.29281,
    "Lon": 112.44854,
    "Ele": 29.0
  },
  {
    "type": "medium_airport",
    "name": "Luoyang Beijiao Airport",
    "gps_code": "ZHLY",
    "freq": "",
    "Lat": 34.7411,
    "Lon": 112.388,
    "Ele": 256.0
  },
  {
    "type": "small_airport",
    "name": "Nanyang Jiangying Airport",
    "gps_code": "ZHNY",
    "freq": "",
    "Lat": 32.982696,
    "Lon": 112.617467,
    "Ele": 256.0
  },
  {
    "type": "small_airport",
    "name": "Anyang Hongqiqu Airport",
    "gps_code": "ZHQQ",
    "freq": "",
    "Lat": 35.870833,
    "Lon": 114.461944,
    "Ele": 0.0
  },
  {
    "type": "medium_airport",
    "name": "Shennongjia Hongping Airport",
    "gps_code": "ZHSN",
    "freq": "",
    "Lat": 31.626,
    "Lon": 110.34,
    "Ele": 2549.7
  },
  {
    "type": "medium_airport",
    "name": "Shiyan Wudangshan Airport",
    "gps_code": "ZHSY",
    "freq": "",
    "Lat": 32.592889,
    "Lon": 110.906296,
    "Ele": 0.0
  },
  {
    "type": "medium_airport",
    "name": "Xiangyang Liuji Airport",
    "gps_code": "ZHXF",
    "freq": "",
    "Lat": 32.152222,
    "Lon": 112.291666,
    "Ele": 71.3
  },
  {
    "type": "medium_airport",
    "name": "Xinyang Minggang Airport",
    "gps_code": "ZHXY",
    "freq": "",
    "Lat": 32.540819,
    "Lon": 114.079141,
    "Ele": 95.1
  },
  {
    "type": "medium_airport",
    "name": "Yichang Sanxia Airport",
    "gps_code": "ZHYC",
    "freq": "",
    "Lat": 30.554132,
    "Lon": 111.482563,
    "Ele": 205.1
  },
  {
    "type": "large_airport",
    "name": "Haikou Meilan International Airport",
    "gps_code": "ZJHK",
    "freq": "119.150",
    "Lat": 19.9349,
    "Lon": 110.459,
    "Ele": 22.9
  },
  {
    "type": "medium_airport",
    "name": "Qionghai Bo'ao Airport",
    "gps_code": "ZJQH",
    "freq": "",
    "Lat": 19.140951,
    "Lon": 110.452766,
    "Ele": 9.1
  },
  {
    "type": "large_airport",
    "name": "Sanya Phoenix International Airport",
    "gps_code": "ZJSY",
    "freq": "118.150",
    "Lat": 18.3029,
    "Lon": 109.412003,
    "Ele": 28.0
  },
  {
    "type": "small_airport",
    "name": "Ankang Fuqiang Airport",
    "gps_code": "ZLAK",
    "freq": "",
    "Lat": 32.75696,
    "Lon": 108.87338,
    "Ele": 368.5
  },
  {
    "type": "medium_airport",
    "name": "Dunhuang Mogao International Airport",
    "gps_code": "ZLDH",
    "freq": "",
    "Lat": 40.161098,
    "Lon": 94.809196,
    "Ele": 0.0
  },
  {
    "type": "small_airport",
    "name": "Delingha Airport",
    "gps_code": "ZLDL",
    "freq": "",
    "Lat": 37.125286,
    "Lon": 97.268658,
    "Ele": 3000.1
  },
  {
    "type": "medium_airport",
    "name": "Golog Maqên Airport",
    "gps_code": "ZLGL",
    "freq": "",
    "Lat": 34.418066,
    "Lon": 100.301144,
    "Ele": 3787.4
  },
  {
    "type": "medium_airport",
    "name": "Golmud Airport",
    "gps_code": "ZLGM",
    "freq": "",
    "Lat": 36.4006,
    "Lon": 94.786102,
    "Ele": 2845.0
  },
  {
    "type": "medium_airport",
    "name": "Guyuan Liupanshan Airport",
    "gps_code": "ZLGY",
    "freq": "",
    "Lat": 36.078889,
    "Lon": 106.216944,
    "Ele": 1745.6
  },
  {
    "type": "small_airport",
    "name": "Haibei Qilian Airport",
    "gps_code": "ZLHB",
    "freq": "",
    "Lat": 38.008068,
    "Lon": 100.645065,
    "Ele": 3162.9
  },
  {
    "type": "medium_airport",
    "name": "Huatugou Airport",
    "gps_code": "ZLHX",
    "freq": "",
    "Lat": 38.201645,
    "Lon": 90.837843,
    "Ele": 897.6
  },
  {
    "type": "small_airport",
    "name": "Hanzhong Chenggu Airport",
    "gps_code": "ZLHZ",
    "freq": "",
    "Lat": 33.133527,
    "Lon": 107.203817,
    "Ele": 0.0
  },
  {
    "type": "medium_airport",
    "name": "Yinchuan Hedong International Airport",
    "gps_code": "ZLIC",
    "freq": "",
    "Lat": 38.322758,
    "Lon": 106.393214,
    "Ele": 1140.9
  },
  {
    "type": "small_airport",
    "name": "Jinchang Jinchuan Airport",
    "gps_code": "ZLJC",
    "freq": "",
    "Lat": 38.542222,
    "Lon": 102.348333,
    "Ele": 1444.8
  },
  {
    "type": "small_airport",
    "name": "Jiayuguan Airport",
    "gps_code": "ZLJQ",
    "freq": "",
    "Lat": 39.856899,
    "Lon": 98.3414,
    "Ele": 1558.1
  },
  {
    "type": "large_airport",
    "name": "Lanzhou Zhongchuan International Airport",
    "gps_code": "ZLLL",
    "freq": "118.100",
    "Lat": 36.515202,
    "Lon": 103.620003,
    "Ele": 1947.1
  },
  {
    "type": "medium_airport",
    "name": "Longnan Chengzhou Airport",
    "gps_code": "ZLLN",
    "freq": "",
    "Lat": 33.789918,
    "Lon": 105.790014,
    "Ele": 1129.9
  },
  {
    "type": "small_airport",
    "name": "Pucheng Neifu Airport",
    "gps_code": "ZLPC",
    "freq": "",
    "Lat": 34.825791,
    "Lon": 109.535547,
    "Ele": 0.0
  },
  {
    "type": "medium_airport",
    "name": "Qingyang Xifeng Airport",
    "gps_code": "ZLQY",
    "freq": "",
    "Lat": 35.802638,
    "Lon": 107.598896,
    "Ele": 0.0
  },
  {
    "type": "medium_airport",
    "name": "Xi'an Xiguan Airport",
    "gps_code": "ZLSN",
    "freq": "",
    "Lat": 34.376701,
    "Lon": 109.120003,
    "Ele": 0.0
  },
  {
    "type": "medium_airport",
    "name": "Tianshui Maijishan Airport",
    "gps_code": "ZLTS",
    "freq": "",
    "Lat": 34.5601,
    "Lon": 105.860343,
    "Ele": 1094.2
  },
  {
    "type": "medium_airport",
    "name": "Gannan Xiahe Airport",
    "gps_code": "ZLXH",
    "freq": "",
    "Lat": 34.819014,
    "Lon": 102.622261,
    "Ele": 3203.4
  },
  {
    "type": "medium_airport",
    "name": "Xining Caojiabao International Airport",
    "gps_code": "ZLXN",
    "freq": "",
    "Lat": 36.530093,
    "Lon": 102.040062,
    "Ele": 2169.9
  },
  {
    "type": "large_airport",
    "name": "Xi'an Xianyang International Airport",
    "gps_code": "ZLXY",
    "freq": "119.600",
    "Lat": 34.447102,
    "Lon": 108.751999,
    "Ele": 479.1
  },
  {
    "type": "medium_airport",
    "name": "Yan'an Nanniwan Airport",
    "gps_code": "ZLYA",
    "freq": "",
    "Lat": 36.479413,
    "Lon": 109.464083,
    "Ele": 0.0
  },
  {
    "type": "small_airport",
    "name": "Yulin Yuyang Airport",
    "gps_code": "ZLYL",
    "freq": "",
    "Lat": 38.35971,
    "Lon": 109.590927,
    "Ele": 1186.0
  },
  {
    "type": "medium_airport",
    "name": "Yushu Batang Airport",
    "gps_code": "ZLYS",
    "freq": "",
    "Lat": 32.836389,
    "Lon": 97.036389,
    "Ele": 3906.3
  },
  {
    "type": "medium_airport",
    "name": "Zhongwei Shapotou Airport",
    "gps_code": "ZLZW",
    "freq": "",
    "Lat": 37.573125,
    "Lon": 105.154454,
    "Ele": 1246.0
  },
  {
    "type": "small_airport",
    "name": "Zhangye Ganzhou Airport",
    "gps_code": "ZLZY",
    "freq": "",
    "Lat": 38.801899,
    "Lon": 100.675003,
    "Ele": 1609.3
  },
  {
    "type": "small_airport",
    "name": "Mazongshan Airport",
    "gps_code": "ZMAZ",
    "freq": "",
    "Lat": 42.308371,
    "Lon": 97.077148,
    "Ele": 1664.8
  },
  {
    "type": "medium_airport",
    "name": "Baoshan Yunrui Airport",
    "gps_code": "ZPBS",
    "freq": "",
    "Lat": 25.053301,
    "Lon": 99.168297,
    "Ele": 1662.1
  },
  {
    "type": "medium_airport",
    "name": "Cangyuan Washan Airport",
    "gps_code": "ZPCW",
    "freq": "",
    "Lat": 23.276331,
    "Lon": 99.373169,
    "Ele": 0.0
  },
  {
    "type": "medium_airport",
    "name": "Dali Fengyi Airport",
    "gps_code": "ZPDL",
    "freq": "",
    "Lat": 25.649401,
    "Lon": 100.319,
    "Ele": 2148.8
  },
  {
    "type": "medium_airport",
    "name": "Diqing Shangri-La Airport",
    "gps_code": "ZPDQ",
    "freq": "",
    "Lat": 27.7936,
    "Lon": 99.6772,
    "Ele": 3280.0
  },
  {
    "type": "medium_airport",
    "name": "Xishuangbanna Gasa International Airport",
    "gps_code": "ZPJH",
    "freq": "119.100",
    "Lat": 21.974648,
    "Lon": 100.762224,
    "Ele": 553.2
  },
  {
    "type": "medium_airport",
    "name": "Lancang Jingmai Airport",
    "gps_code": "ZPJM",
    "freq": "",
    "Lat": 22.417733,
    "Lon": 99.784012,
    "Ele": 0.0
  },
  {
    "type": "medium_airport",
    "name": "Lincang Boshang Airport",
    "gps_code": "ZPLC",
    "freq": "",
    "Lat": 23.7381,
    "Lon": 100.025002,
    "Ele": 1898.9
  },
  {
    "type": "medium_airport",
    "name": "Lijiang Sanyi International Airport",
    "gps_code": "ZPLJ",
    "freq": "",
    "Lat": 26.68,
    "Lon": 100.246002,
    "Ele": 2243.0
  },
  {
    "type": "medium_airport",
    "name": "Dehong Mangshi Airport",
    "gps_code": "ZPMS",
    "freq": "",
    "Lat": 24.4011,
    "Lon": 98.5317,
    "Ele": 880.9
  },
  {
    "type": "large_airport",
    "name": "Kunming Changshui International Airport",
    "gps_code": "ZPPP",
    "freq": "124.220",
    "Lat": 25.110313,
    "Lon": 102.936743,
    "Ele": 2104.0
  },
  {
    "type": "small_airport",
    "name": "Pu'er Simao Airport",
    "gps_code": "ZPSM",
    "freq": "",
    "Lat": 22.793301,
    "Lon": 100.959,
    "Ele": 0.0
  },
  {
    "type": "small_airport",
    "name": "Wenshan Puzhehei Airport",
    "gps_code": "ZPWS",
    "freq": "",
    "Lat": 23.5583,
    "Lon": 104.3255,
    "Ele": 1590.1
  },
  {
    "type": "medium_airport",
    "name": "Yuanmou Air Base",
    "gps_code": "ZPYM",
    "freq": "",
    "Lat": 25.737499,
    "Lon": 101.882004,
    "Ele": 1161.3
  },
  {
    "type": "small_airport",
    "name": "Zhaotong Airport",
    "gps_code": "ZPZT",
    "freq": "",
    "Lat": 27.327549,
    "Lon": 103.75617,
    "Ele": 0.0
  },
  {
    "type": "large_airport",
    "name": "Xiamen Gaoqi International Airport",
    "gps_code": "ZSAM",
    "freq": "121.350",
    "Lat": 24.54400062561035,
    "Lon": 118.12799835205078,
    "Ele": 18.0
  },
  {
    "type": "medium_airport",
    "name": "Anqing Tianzhushan Airport / Anqing North Air Base",
    "gps_code": "ZSAQ",
    "freq": "",
    "Lat": 30.582199,
    "Lon": 117.050003,
    "Ele": 0.0
  },
  {
    "type": "medium_airport",
    "name": "Bengbu Tenghu Airport",
    "gps_code": "ZSBB",
    "freq": "",
    "Lat": 32.847733,
    "Lon": 117.320244,
    "Ele": 30.5
  },
  {
    "type": "medium_airport",
    "name": "Changzhou Benniu International Airport",
    "gps_code": "ZSCG",
    "freq": "",
    "Lat": 31.920485,
    "Lon": 119.77546,
    "Ele": 10.1
  },
  {
    "type": "large_airport",
    "name": "Nanchang Changbei International Airport",
    "gps_code": "ZSCN",
    "freq": "128.400",
    "Lat": 28.864815,
    "Lon": 115.90271,
    "Ele": 43.6
  },
  {
    "type": "small_airport",
    "name": "Zhenjiang Dalu Airport",
    "gps_code": "ZSDL",
    "freq": "",
    "Lat": 32.23649,
    "Lon": 119.718683,
    "Ele": 4.9
  },
  {
    "type": "medium_airport",
    "name": "Dongying Shengli Airport",
    "gps_code": "ZSDY",
    "freq": "",
    "Lat": 37.50137,
    "Lon": 118.789863,
    "Ele": 4.6
  },
  {
    "type": "medium_airport",
    "name": "Fuyang Xiguan Airport",
    "gps_code": "ZSFY",
    "freq": "",
    "Lat": 32.882157,
    "Lon": 115.734364,
    "Ele": 31.7
  },
  {
    "type": "large_airport",
    "name": "Fuzhou Changle International Airport",
    "gps_code": "ZSFZ",
    "freq": "119.450",
    "Lat": 25.934669,
    "Lon": 119.66318,
    "Ele": 14.0
  },
  {
    "type": "small_airport",
    "name": "Ganzhou Huangjin Airport",
    "gps_code": "ZSGZ",
    "freq": "",
    "Lat": 25.853333,
    "Lon": 114.778889,
    "Ele": 118.0
  },
  {
    "type": "large_airport",
    "name": "Hangzhou Xiaoshan International Airport",
    "gps_code": "ZSHC",
    "freq": "125.550",
    "Lat": 30.23609,
    "Lon": 120.428865,
    "Ele": 7.0
  },
  {
    "type": "medium_airport",
    "name": "Heze Mudan Airport",
    "gps_code": "ZSHZ",
    "freq": "",
    "Lat": 35.212972,
    "Lon": 115.736748,
    "Ele": 0.0
  },
  {
    "type": "medium_airport",
    "name": "Jingdezhen Luojia Airport",
    "gps_code": "ZSJD",
    "freq": "",
    "Lat": 29.3386,
    "Lon": 117.176003,
    "Ele": 34.1
  },
  {
    "type": "medium_airport",
    "name": "Jining Da'an Airport",
    "gps_code": "ZSJG",
    "freq": "",
    "Lat": 35.647358,
    "Lon": 116.743269,
    "Ele": 52.1
  },
  {
    "type": "small_airport",
    "name": "Jiujiang Lushan Airport",
    "gps_code": "ZSJJ",
    "freq": "",
    "Lat": 29.476944,
    "Lon": 115.801111,
    "Ele": 0.0
  },
  {
    "type": "large_airport",
    "name": "Jinan Yaoqiang International Airport",
    "gps_code": "ZSJN",
    "freq": "127.050",
    "Lat": 36.857201,
    "Lon": 117.216003,
    "Ele": 23.2
  },
  {
    "type": "medium_airport",
    "name": "Quzhou Airport",
    "gps_code": "ZSJU",
    "freq": "",
    "Lat": 28.96613,
    "Lon": 118.898793,
    "Ele": 64.9
  },
  {
    "type": "medium_airport",
    "name": "Lianyungang Huaguoshan International Airport",
    "gps_code": "ZSLG",
    "freq": "",
    "Lat": 34.41406,
    "Lon": 119.17899,
    "Ele": 0.0
  },
  {
    "type": "medium_airport",
    "name": "Liancheng Guanzhishan Airport",
    "gps_code": "ZSLO",
    "freq": "",
    "Lat": 25.67592,
    "Lon": 116.745907,
    "Ele": 373.4
  },
  {
    "type": "medium_airport",
    "name": "Taizhou Luqiao Airport",
    "gps_code": "ZSLQ",
    "freq": "",
    "Lat": 28.562201,
    "Lon": 121.429001,
    "Ele": 0.0
  },
  {
    "type": "medium_airport",
    "name": "Linyi Qiyang Airport",
    "gps_code": "ZSLY",
    "freq": "",
    "Lat": 35.052918,
    "Lon": 118.411828,
    "Ele": 53.9
  },
  {
    "type": "large_airport",
    "name": "Ningbo Lishe International Airport",
    "gps_code": "ZSNB",
    "freq": "121.850",
    "Lat": 29.82670021057129,
    "Lon": 121.46199798583984,
    "Ele": 4.0
  },
  {
    "type": "large_airport",
    "name": "Nanjing Lukou International Airport",
    "gps_code": "ZSNJ",
    "freq": "119.250",
    "Lat": 31.735032,
    "Lon": 118.865949,
    "Ele": 14.9
  },
  {
    "type": "medium_airport",
    "name": "Nantong Xingdong International Airport",
    "gps_code": "ZSNT",
    "freq": "",
    "Lat": 32.073566,
    "Lon": 120.980076,
    "Ele": 4.9
  },
  {
    "type": "medium_airport",
    "name": "Hefei Xinqiao International Airport",
    "gps_code": "ZSOF",
    "freq": "128.850",
    "Lat": 31.98779,
    "Lon": 116.9769,
    "Ele": 63.1
  },
  {
    "type": "large_airport",
    "name": "Shanghai Pudong International Airport",
    "gps_code": "ZSPD",
    "freq": "119.750",
    "Lat": 31.1434,
    "Lon": 121.805,
    "Ele": 4.0
  },
  {
    "type": "large_airport",
    "name": "Qingdao Jiaodong International Airport",
    "gps_code": "ZSQD",
    "freq": "",
    "Lat": 36.361953,
    "Lon": 120.088171,
    "Ele": 9.1
  },
  {
    "type": "medium_airport",
    "name": "Quanzhou Jinjiang International Airport",
    "gps_code": "ZSQZ",
    "freq": "",
    "Lat": 24.796587,
    "Lon": 118.588883,
    "Ele": 11.9
  },
  {
    "type": "medium_airport",
    "name": "Rugao Air Base",
    "gps_code": "ZSRG",
    "freq": "",
    "Lat": 32.258341,
    "Lon": 120.501131,
    "Ele": 0.0
  },
  {
    "type": "medium_airport",
    "name": "Rizhao Shanzihe Airport",
    "gps_code": "ZSRZ",
    "freq": "",
    "Lat": 35.405033,
    "Lon": 119.324403,
    "Ele": 36.9
  },
  {
    "type": "medium_airport",
    "name": "Huai'an Lianshui International Airport",
    "gps_code": "ZSSH",
    "freq": "",
    "Lat": 33.790833,
    "Lon": 119.125,
    "Ele": 8.5
  },
  {
    "type": "medium_airport",
    "name": "Sanming Shaxian Airport",
    "gps_code": "ZSSM",
    "freq": "",
    "Lat": 26.4263,
    "Lon": 117.8336,
    "Ele": 253.0
  },
  {
    "type": "medium_airport",
    "name": "Shangrao Sanqingshan Airport",
    "gps_code": "ZSSR",
    "freq": "",
    "Lat": 28.3797,
    "Lon": 117.9643,
    "Ele": 103.6
  },
  {
    "type": "large_airport",
    "name": "Shanghai Hongqiao International Airport",
    "gps_code": "ZSSS",
    "freq": "119.750",
    "Lat": 31.198104,
    "Lon": 121.33426,
    "Ele": 3.0
  },
  {
    "type": "medium_airport",
    "name": "Suzhou Guangfu Airport",
    "gps_code": "ZSSZ",
    "freq": "",
    "Lat": 31.2631,
    "Lon": 120.401001,
    "Ele": 0.0
  },
  {
    "type": "medium_airport",
    "name": "Tunxi International Airport",
    "gps_code": "ZSTX",
    "freq": "",
    "Lat": 29.733299255371094,
    "Lon": 118.25599670410156,
    "Ele": 0.0
  },
  {
    "type": "medium_airport",
    "name": "Wuhu Xuanzhou Airport",
    "gps_code": "ZSWA",
    "freq": "",
    "Lat": 31.1045,
    "Lon": 118.66687,
    "Ele": 24.4
  },
  {
    "type": "medium_airport",
    "name": "Weifang Nanyuan Airport",
    "gps_code": "ZSWF",
    "freq": "",
    "Lat": 36.646702,
    "Lon": 119.119003,
    "Ele": 0.0
  },
  {
    "type": "medium_airport",
    "name": "Weihai Dashuibo Airport",
    "gps_code": "ZSWH",
    "freq": "127.050",
    "Lat": 37.187099,
    "Lon": 122.228996,
    "Ele": 44.2
  },
  {
    "type": "small_airport",
    "name": "Wuhu Wanli Airport / Wuhu Air Base",
    "gps_code": "ZSWU",
    "freq": "",
    "Lat": 31.3906,
    "Lon": 118.408997,
    "Ele": 10.4
  },
  {
    "type": "medium_airport",
    "name": "Sunan Shuofang International Airport",
    "gps_code": "ZSWX",
    "freq": "",
    "Lat": 31.4944000244,
    "Lon": 120.429000854,
    "Ele": 7.3
  },
  {
    "type": "medium_airport",
    "name": "Nanping Wuyishan Airport",
    "gps_code": "ZSWY",
    "freq": "",
    "Lat": 27.7019,
    "Lon": 118.000999,
    "Ele": 187.1
  },
  {
    "type": "large_airport",
    "name": "Wenzhou Longwan International Airport",
    "gps_code": "ZSWZ",
    "freq": "",
    "Lat": 27.910572,
    "Lon": 120.853465,
    "Ele": 4.0
  },
  {
    "type": "medium_airport",
    "name": "Xuzhou Guanyin International Airport",
    "gps_code": "ZSXZ",
    "freq": "118.250",
    "Lat": 34.059056,
    "Lon": 117.555278,
    "Ele": 32.9
  },
  {
    "type": "medium_airport",
    "name": "Yangzhou Taizhou Airport",
    "gps_code": "ZSYA",
    "freq": "",
    "Lat": 32.5634,
    "Lon": 119.7198,
    "Ele": 2.1
  },
  {
    "type": "medium_airport",
    "name": "Yichun Mingyueshan Airport",
    "gps_code": "ZSYC",
    "freq": "",
    "Lat": 27.8025,
    "Lon": 114.3062,
    "Ele": 131.1
  },
  {
    "type": "medium_airport",
    "name": "Yancheng Nanyang International Airport",
    "gps_code": "ZSYN",
    "freq": "",
    "Lat": 33.425833,
    "Lon": 120.203056,
    "Ele": 3.0
  },
  {
    "type": "large_airport",
    "name": "Yantai Penglai International Airport",
    "gps_code": "ZSYT",
    "freq": "",
    "Lat": 37.659724,
    "Lon": 120.978124,
    "Ele": 46.9
  },
  {
    "type": "medium_airport",
    "name": "Yiwu Airport",
    "gps_code": "ZSYW",
    "freq": "",
    "Lat": 29.342095,
    "Lon": 120.03116,
    "Ele": 79.9
  },
  {
    "type": "medium_airport",
    "name": "Zhoushan Putuoshan Airport",
    "gps_code": "ZSZS",
    "freq": "",
    "Lat": 29.9342,
    "Lon": 122.362,
    "Ele": 0.9
  },
  {
    "type": "medium_airport",
    "name": "Ngari Gunsa Airport",
    "gps_code": "ZUAL",
    "freq": "",
    "Lat": 32.09794,
    "Lon": 80.053971,
    "Ele": 4273.9
  },
  {
    "type": "medium_airport",
    "name": "Anshun Huangguoshu Airport",
    "gps_code": "ZUAS",
    "freq": "",
    "Lat": 26.260556,
    "Lon": 105.873333,
    "Ele": 1466.7
  },
  {
    "type": "small_airport",
    "name": "Beichuan Yongchang Airport",
    "gps_code": "ZUBC",
    "freq": "",
    "Lat": 31.581474,
    "Lon": 104.459701,
    "Ele": 613.3
  },
  {
    "type": "medium_airport",
    "name": "Qamdo Bangda Airport",
    "gps_code": "ZUBD",
    "freq": "",
    "Lat": 30.553600311279297,
    "Lon": 97.1082992553711,
    "Ele": 4334.0
  },
  {
    "type": "medium_airport",
    "name": "Bijie Feixiong Airport",
    "gps_code": "ZUBJ",
    "freq": "",
    "Lat": 27.267066,
    "Lon": 105.472097,
    "Ele": 1448.1
  },
  {
    "type": "large_airport",
    "name": "Chongqing Jiangbei International Airport",
    "gps_code": "ZUCK",
    "freq": "125.200",
    "Lat": 29.712254,
    "Lon": 106.651895,
    "Ele": 416.1
  },
  {
    "type": "medium_airport",
    "name": "Dazhou Jinya Airport",
    "gps_code": "ZUDA",
    "freq": "",
    "Lat": 31.048815,
    "Lon": 107.435646,
    "Ele": 409.0
  },
  {
    "type": "medium_airport",
    "name": "Daocheng Yading Airport",
    "gps_code": "ZUDC",
    "freq": "",
    "Lat": 29.31632,
    "Lon": 100.060317,
    "Ele": 4411.1
  },
  {
    "type": "medium_airport",
    "name": "Tongren Dejiang Airport (Under Construction)",
    "gps_code": "ZUDJ",
    "freq": "",
    "Lat": 28.121,
    "Lon": 108.1631,
    "Ele": 1079.6
  },
  {
    "type": "small_airport",
    "name": "Dachuan Airport",
    "gps_code": "ZUDX",
    "freq": "",
    "Lat": 31.1302,
    "Lon": 107.4295,
    "Ele": 0.0
  },
  {
    "type": "small_airport",
    "name": "Dazu Air Base",
    "gps_code": "ZUDZ",
    "freq": "",
    "Lat": 29.636227,
    "Lon": 105.773621,
    "Ele": 371.9
  },
  {
    "type": "small_airport",
    "name": "Guanghan Airport",
    "gps_code": "ZUGH",
    "freq": "",
    "Lat": 30.9485,
    "Lon": 104.3296,
    "Ele": 466.6
  },
  {
    "type": "medium_airport",
    "name": "Guangyuan Panlong Airport",
    "gps_code": "ZUGU",
    "freq": "",
    "Lat": 32.390254,
    "Lon": 105.694571,
    "Ele": 0.0
  },
  {
    "type": "large_airport",
    "name": "Guiyang Longdongbao International Airport",
    "gps_code": "ZUGY",
    "freq": "126.050",
    "Lat": 26.541466,
    "Lon": 106.803331,
    "Ele": 1138.7
  },
  {
    "type": "small_airport",
    "name": "Garze Gesar Airport",
    "gps_code": "ZUGZ",
    "freq": "",
    "Lat": 31.7575,
    "Lon": 99.554167,
    "Ele": 4067.9
  },
  {
    "type": "medium_airport",
    "name": "Hongyuan Airport",
    "gps_code": "ZUHY",
    "freq": "",
    "Lat": 32.53154,
    "Lon": 102.35224,
    "Ele": 3535.7
  },
  {
    "type": "medium_airport",
    "name": "Jiuzhai Huanglong Airport",
    "gps_code": "ZUJZ",
    "freq": "",
    "Lat": 32.853333,
    "Lon": 103.682222,
    "Ele": 3452.5
  },
  {
    "type": "medium_airport",
    "name": "Kangding Airport",
    "gps_code": "ZUKD",
    "freq": "",
    "Lat": 30.142464,
    "Lon": 101.73872,
    "Ele": 4280.0
  },
  {
    "type": "medium_airport",
    "name": "Kaili Huangping Airport",
    "gps_code": "ZUKJ",
    "freq": "",
    "Lat": 26.972,
    "Lon": 107.988,
    "Ele": 949.5
  },
  {
    "type": "small_airport",
    "name": "Libo Airport",
    "gps_code": "ZULB",
    "freq": "",
    "Lat": 25.4525,
    "Lon": 107.961667,
    "Ele": 0.0
  },
  {
    "type": "small_airport",
    "name": "Liangping Airport",
    "gps_code": "ZULP",
    "freq": "",
    "Lat": 30.679399,
    "Lon": 107.786003,
    "Ele": 0.0
  },
  {
    "type": "medium_airport",
    "name": "Lhasa Gonggar Airport",
    "gps_code": "ZULS",
    "freq": "121.650",
    "Lat": 29.298001,
    "Lon": 90.911951,
    "Ele": 3570.1
  },
  {
    "type": "medium_airport",
    "name": "Luzhou Yunlong Airport",
    "gps_code": "ZULZ",
    "freq": "",
    "Lat": 29.030357,
    "Lon": 105.468407,
    "Ele": 0.0
  },
  {
    "type": "medium_airport",
    "name": "Zunyi Maotai Airport",
    "gps_code": "ZUMT",
    "freq": "",
    "Lat": 27.961837,
    "Lon": 106.435416,
    "Ele": 1239.9
  },
  {
    "type": "medium_airport",
    "name": "Mianyang Nanjiao Airport",
    "gps_code": "ZUMY",
    "freq": "",
    "Lat": 31.428101,
    "Lon": 104.740997,
    "Ele": 2400.0
  },
  {
    "type": "small_airport",
    "name": "Nanchong Gaoping Airport",
    "gps_code": "ZUNC",
    "freq": "",
    "Lat": 30.798104,
    "Lon": 106.16415,
    "Ele": 349.0
  },
  {
    "type": "medium_airport",
    "name": "Liping Airport",
    "gps_code": "ZUNP",
    "freq": "",
    "Lat": 26.32217,
    "Lon": 109.1499,
    "Ele": 493.8
  },
  {
    "type": "medium_airport",
    "name": "Nyingchi Mainling Airport",
    "gps_code": "ZUNZ",
    "freq": "",
    "Lat": 29.303301,
    "Lon": 94.335297,
    "Ele": 2948.9
  },
  {
    "type": "medium_airport",
    "name": "Liupanshui Yuezhao Airport",
    "gps_code": "ZUPS",
    "freq": "",
    "Lat": 26.609417,
    "Lon": 104.979,
    "Ele": 0.0
  },
  {
    "type": "medium_airport",
    "name": "Qianjiang Wulingshan Airport",
    "gps_code": "ZUQJ",
    "freq": "",
    "Lat": 29.5133333333,
    "Lon": 108.831111111,
    "Ele": 632.5
  },
  {
    "type": "medium_airport",
    "name": "Xigaze Peace Airport / Shigatse Air Base",
    "gps_code": "ZURK",
    "freq": "",
    "Lat": 29.3519,
    "Lon": 89.311401,
    "Ele": 1152.8
  },
  {
    "type": "small_airport",
    "name": "Shannan Longzi Airport",
    "gps_code": "ZUSH",
    "freq": "",
    "Lat": 28.422422,
    "Lon": 92.348082,
    "Ele": 3949.9
  },
  {
    "type": "small_airport",
    "name": "Suining Airport",
    "gps_code": "ZUSN",
    "freq": "",
    "Lat": 30.471295,
    "Lon": 105.610925,
    "Ele": 0.0
  },
  {
    "type": "medium_airport",
    "name": "Tengchong Tuofeng Airport",
    "gps_code": "ZUTC",
    "freq": "",
    "Lat": 24.938056,
    "Lon": 98.485833,
    "Ele": 1905.0
  },
  {
    "type": "large_airport",
    "name": "Chengdu Tianfu International Airport",
    "gps_code": "ZUTF",
    "freq": "",
    "Lat": 30.31252,
    "Lon": 104.441284,
    "Ele": 438.9
  },
  {
    "type": "medium_airport",
    "name": "Tongren Fenghuang Airport",
    "gps_code": "ZUTR",
    "freq": "",
    "Lat": 27.883333,
    "Lon": 109.308889,
    "Ele": 0.0
  },
  {
    "type": "large_airport",
    "name": "Chengdu Shuangliu International Airport",
    "gps_code": "ZUUU",
    "freq": "119.700",
    "Lat": 30.558257,
    "Lon": 103.945966,
    "Ele": 495.3
  },
  {
    "type": "medium_airport",
    "name": "Chongqing Xiannüshan Airport",
    "gps_code": "ZUWL",
    "freq": "",
    "Lat": 29.465658,
    "Lon": 107.693664,
    "Ele": 532.5
  },
  {
    "type": "small_airport",
    "name": "Chongqing Wushan Airport",
    "gps_code": "ZUWS",
    "freq": "",
    "Lat": 31.06896,
    "Lon": 109.708958,
    "Ele": 0.0
  },
  {
    "type": "small_airport",
    "name": "Wanzhou Wuqiao Airport",
    "gps_code": "ZUWX",
    "freq": "",
    "Lat": 30.8017,
    "Lon": 108.433,
    "Ele": 0.0
  },
  {
    "type": "medium_airport",
    "name": "Xichang Qingshan Airport",
    "gps_code": "ZUXC",
    "freq": "130.000",
    "Lat": 27.9891,
    "Lon": 102.183998,
    "Ele": 1558.1
  },
  {
    "type": "medium_airport",
    "name": "Yibin Wuliangye Airport",
    "gps_code": "ZUYB",
    "freq": "",
    "Lat": 28.858431,
    "Lon": 104.526157,
    "Ele": 420.0
  },
  {
    "type": "medium_airport",
    "name": "Xingyi Wanfenglin Airport",
    "gps_code": "ZUYI",
    "freq": "",
    "Lat": 25.083423,
    "Lon": 104.960804,
    "Ele": 1264.9
  },
  {
    "type": "medium_airport",
    "name": "Panzhihua Bao'anying Airport",
    "gps_code": "ZUZH",
    "freq": "",
    "Lat": 26.54,
    "Lon": 101.79852,
    "Ele": 493.8
  },
  {
    "type": "medium_airport",
    "name": "Zunyi Xinzhou Airport",
    "gps_code": "ZUZY",
    "freq": "",
    "Lat": 27.810723,
    "Lon": 107.247189,
    "Ele": 830.0
  },
  {
    "type": "medium_airport",
    "name": "Aksu Hongqipo Airport",
    "gps_code": "ZWAK",
    "freq": "",
    "Lat": 41.262501,
    "Lon": 80.291702,
    "Ele": 1163.1
  },
  {
    "type": "small_airport",
    "name": "Aral Tarim Airport",
    "gps_code": "ZWAL",
    "freq": "",
    "Lat": 40.434748,
    "Lon": 81.26206,
    "Ele": 0.0
  },
  {
    "type": "medium_airport",
    "name": "Altay Xuedu Airport",
    "gps_code": "ZWAT",
    "freq": "",
    "Lat": 47.749886,
    "Lon": 88.085808,
    "Ele": 749.8
  },
  {
    "type": "medium_airport",
    "name": "Bole Alashankou Airport",
    "gps_code": "ZWBL",
    "freq": "",
    "Lat": 44.895461,
    "Lon": 82.30007,
    "Ele": 381.9
  },
  {
    "type": "medium_airport",
    "name": "Qiemo Yudu Airport",
    "gps_code": "ZWCM",
    "freq": "",
    "Lat": 38.234516,
    "Lon": 85.465462,
    "Ele": 0.0
  },
  {
    "type": "medium_airport",
    "name": "Fuyun Koktokay Airport",
    "gps_code": "ZWFY",
    "freq": "",
    "Lat": 46.804169,
    "Lon": 89.512006,
    "Ele": 939.1
  },
  {
    "type": "medium_airport",
    "name": "Hami Airport",
    "gps_code": "ZWHM",
    "freq": "",
    "Lat": 42.8414,
    "Lon": 93.669197,
    "Ele": 823.9
  },
  {
    "type": "small_airport",
    "name": "Shihezi Huayuan Airport",
    "gps_code": "ZWHZ",
    "freq": "",
    "Lat": 44.2421,
    "Lon": 85.8905,
    "Ele": 518.2
  },
  {
    "type": "small_airport",
    "name": "Kuqa Qiuci Airport",
    "gps_code": "ZWKC",
    "freq": "",
    "Lat": 41.677856,
    "Lon": 82.872917,
    "Ele": 1074.1
  },
  {
    "type": "medium_airport",
    "name": "Korla Licheng Airport",
    "gps_code": "ZWKL",
    "freq": "",
    "Lat": 41.614979,
    "Lon": 86.140817,
    "Ele": 926.9
  },
  {
    "type": "small_airport",
    "name": "Karamay Airport",
    "gps_code": "ZWKM",
    "freq": "",
    "Lat": 45.46655,
    "Lon": 84.9527,
    "Ele": 0.0
  },
  {
    "type": "medium_airport",
    "name": "Burqin Kanas Airport",
    "gps_code": "ZWKN",
    "freq": "",
    "Lat": 48.2223,
    "Lon": 86.9959,
    "Ele": 1195.1
  },
  {
    "type": "medium_airport",
    "name": "Xinyuan Nalati Airport",
    "gps_code": "ZWNL",
    "freq": "",
    "Lat": 43.4318,
    "Lon": 83.3786,
    "Ele": 929.6
  },
  {
    "type": "medium_airport",
    "name": "Ruoqiang Loulan Airport",
    "gps_code": "ZWRQ",
    "freq": "",
    "Lat": 38.974722,
    "Lon": 88.008333,
    "Ele": 888.8
  },
  {
    "type": "medium_airport",
    "name": "Shache Airport",
    "gps_code": "ZWSC",
    "freq": "",
    "Lat": 38.24542,
    "Lon": 77.056149,
    "Ele": 1289.9
  },
  {
    "type": "medium_airport",
    "name": "Kashgar Laining International Airport",
    "gps_code": "ZWSH",
    "freq": "118.500",
    "Lat": 39.5429,
    "Lon": 76.019997,
    "Ele": 1380.4
  },
  {
    "type": "medium_airport",
    "name": "Shanshan Airport",
    "gps_code": "ZWSS",
    "freq": "",
    "Lat": 42.911701,
    "Lon": 90.247498,
    "Ele": 0.0
  },
  {
    "type": "small_airport",
    "name": "Tacheng Qianquan Airport",
    "gps_code": "ZWTC",
    "freq": "",
    "Lat": 46.672501,
    "Lon": 83.340797,
    "Ele": 0.0
  },
  {
    "type": "medium_airport",
    "name": "Turpan Jiaohe Airport",
    "gps_code": "ZWTL",
    "freq": "",
    "Lat": 43.0308,
    "Lon": 89.0987,
    "Ele": 284.7
  },
  {
    "type": "medium_airport",
    "name": "Hotan Airport",
    "gps_code": "ZWTN",
    "freq": "118.650",
    "Lat": 37.03850173950195,
    "Lon": 79.86489868164062,
    "Ele": 1424.0
  },
  {
    "type": "large_airport",
    "name": "Ürümqi Tianshan International Airport",
    "gps_code": "ZWWW",
    "freq": "126.700",
    "Lat": 43.907101,
    "Lon": 87.474197,
    "Ele": 647.7
  },
  {
    "type": "small_airport",
    "name": "Yining Airport",
    "gps_code": "ZWYN",
    "freq": "",
    "Lat": 43.955799,
    "Lon": 81.330299,
    "Ele": 0.0
  },
  {
    "type": "small_airport",
    "name": "Yutian Wanfang Airport",
    "gps_code": "ZWYT",
    "freq": "",
    "Lat": 36.8085,
    "Lon": 81.7827,
    "Ele": 1442.0
  },
  {
    "type": "medium_airport",
    "name": "Anshan Teng'ao Airport / Anshan Air Base",
    "gps_code": "ZYAS",
    "freq": "",
    "Lat": 41.105301,
    "Lon": 122.853996,
    "Ele": 0.0
  },
  {
    "type": "medium_airport",
    "name": "Baicheng Chang'an Airport",
    "gps_code": "ZYBA",
    "freq": "",
    "Lat": 45.505278,
    "Lon": 123.019722,
    "Ele": 146.3
  },
  {
    "type": "medium_airport",
    "name": "Changbaishan Airport",
    "gps_code": "ZYBS",
    "freq": "",
    "Lat": 42.066944,
    "Lon": 127.602222,
    "Ele": 876.0
  },
  {
    "type": "large_airport",
    "name": "Changchun Longjia International Airport",
    "gps_code": "ZYCC",
    "freq": "119.450",
    "Lat": 43.996201,
    "Lon": 125.684998,
    "Ele": 215.2
  },
  {
    "type": "medium_airport",
    "name": "Changhai Airport",
    "gps_code": "ZYCH",
    "freq": "",
    "Lat": 39.266667,
    "Lon": 122.666944,
    "Ele": 24.4
  },
  {
    "type": "medium_airport",
    "name": "Chaoyang Airport",
    "gps_code": "ZYCY",
    "freq": "",
    "Lat": 41.538101,
    "Lon": 120.434998,
    "Ele": 173.1
  },
  {
    "type": "medium_airport",
    "name": "Dandong Langtou Airport",
    "gps_code": "ZYDD",
    "freq": "",
    "Lat": 40.025453,
    "Lon": 124.28669,
    "Ele": 9.1
  },
  {
    "type": "small_airport",
    "name": "Daqing Sartu Airport",
    "gps_code": "ZYDQ",
    "freq": "",
    "Lat": 46.750883,
    "Lon": 125.138642,
    "Ele": 151.2
  },
  {
    "type": "medium_airport",
    "name": "Wudalianchi Dedu Airport",
    "gps_code": "ZYDU",
    "freq": "",
    "Lat": 48.441037,
    "Lon": 126.128374,
    "Ele": 299.9
  },
  {
    "type": "small_airport",
    "name": "Fuxin Airport",
    "gps_code": "ZYFX",
    "freq": "",
    "Lat": 42.069014,
    "Lon": 121.718122,
    "Ele": 167.0
  },
  {
    "type": "medium_airport",
    "name": "Fuyuan Dongji Airport",
    "gps_code": "ZYFY",
    "freq": "",
    "Lat": 48.197219,
    "Lon": 134.36298,
    "Ele": 0.0
  },
  {
    "type": "small_airport",
    "name": "Genhe Airport",
    "gps_code": "ZYGH",
    "freq": "",
    "Lat": 50.700277,
    "Lon": 121.3825,
    "Ele": 687.9
  },
  {
    "type": "large_airport",
    "name": "Harbin Taiping International Airport",
    "gps_code": "ZYHB",
    "freq": "127.400",
    "Lat": 45.623402,
    "Lon": 126.25,
    "Ele": 139.3
  },
  {
    "type": "medium_airport",
    "name": "Heihe Aihui Airport",
    "gps_code": "ZYHE",
    "freq": "",
    "Lat": 50.171621,
    "Lon": 127.308884,
    "Ele": 319.1
  },
  {
    "type": "medium_airport",
    "name": "Daxing'anling Elunchun Airport",
    "gps_code": "ZYJD",
    "freq": "",
    "Lat": 50.371389,
    "Lon": 124.1175,
    "Ele": 367.3
  },
  {
    "type": "small_airport",
    "name": "Jilin Ertaizi Airport",
    "gps_code": "ZYJL",
    "freq": "",
    "Lat": 44.002652,
    "Lon": 126.395244,
    "Ele": 0.0
  },
  {
    "type": "medium_airport",
    "name": "Jiamusi Dongjiao Airport",
    "gps_code": "ZYJM",
    "freq": "130.000",
    "Lat": 46.843399,
    "Lon": 130.464996,
    "Ele": 79.9
  },
  {
    "type": "medium_airport",
    "name": "Jiansanjiang Shidi Airport",
    "gps_code": "ZYJS",
    "freq": "",
    "Lat": 47.108248,
    "Lon": 132.65792,
    "Ele": 0.0
  },
  {
    "type": "medium_airport",
    "name": "Jixi Xingkaihu Airport",
    "gps_code": "ZYJX",
    "freq": "",
    "Lat": 45.293,
    "Lon": 131.193,
    "Ele": 231.6
  },
  {
    "type": "medium_airport",
    "name": "Jinzhou Bay Airport",
    "gps_code": "ZYJZ",
    "freq": "",
    "Lat": 40.936032,
    "Lon": 121.277114,
    "Ele": 0.0
  },
  {
    "type": "medium_airport",
    "name": "Yichun Lindu Airport",
    "gps_code": "ZYLD",
    "freq": "",
    "Lat": 47.752056,
    "Lon": 129.019125,
    "Ele": 241.1
  },
  {
    "type": "small_airport",
    "name": "Liaoyang Air Base",
    "gps_code": "ZYLY",
    "freq": "",
    "Lat": 41.277976,
    "Lon": 123.078729,
    "Ele": 17.4
  },
  {
    "type": "medium_airport",
    "name": "Mudanjiang Hailang International Airport",
    "gps_code": "ZYMD",
    "freq": "130.000",
    "Lat": 44.5241012573,
    "Lon": 129.569000244,
    "Ele": 269.1
  },
  {
    "type": "medium_airport",
    "name": "Mohe Gulian Airport",
    "gps_code": "ZYMH",
    "freq": "",
    "Lat": 52.916871,
    "Lon": 122.422759,
    "Ele": 559.6
  },
  {
    "type": "medium_airport",
    "name": "Qiqihar Sanjiazi Airport",
    "gps_code": "ZYQQ",
    "freq": "130.000",
    "Lat": 47.23960113525391,
    "Lon": 123.91799926757812,
    "Ele": 145.4
  },
  {
    "type": "small_airport",
    "name": "Suifenhe Dongning Airport",
    "gps_code": "ZYSD",
    "freq": "",
    "Lat": 44.453889,
    "Lon": 130.843889,
    "Ele": 428.9
  },