[
  {
    "type": "small_airport",
    "name": "Tølløse Flying Club Glider Field",
    "gps_code": "DK-0003",
    "freq": "",
    "Lat": 55.581644,
    "Lon": 11.759105,
    "Ele": 0.0
  },
  {
    "type": "small_airport",
    "name": "Brædstrup Airfield",
    "gps_code": "DK-0004",
    "freq": "",
    "Lat": 55.943611,
    "Lon": 9.653333,
    "Ele": 0.0
  },
  {
    "type": "small_airport",
    "name": "Bogense Flyveplads",
    "gps_code": "DK-0005",
    "freq": "",
    "Lat": 55.543022,
    "Lon": 10.032566,
    "Ele": 0.0
  },
  {
    "type": "small_airport",
    "name": "Rødekro Airfield",
    "gps_code": "DK-0006",
    "freq": "",
    "Lat": 55.07824,
    "Lon": 9.300639,
    "Ele": 41.1
  },
  {
    "type": "small_airport",
    "name": "Ejstruphede Glider Field",
    "gps_code": "DK-0007",
    "freq": "",
    "Lat": 56.02115,
    "Lon": 8.69093,
    "Ele": 30.5
  },
  {
    "type": "small_airport",
    "name": "Holstebro Glider Field",
    "gps_code": "DK-0008",
    "freq": "",
    "Lat": 56.306282,
    "Lon": 8.58603,
    "Ele": 31.1
  },
  {
    "type": "small_airport",
    "name": "Bolhede Glider Field",
    "gps_code": "DK-0009",
    "freq": "",
    "Lat": 55.631971,
    "Lon": 8.755736,
    "Ele": 0.0
  },
  {
    "type": "small_airport",
    "name": "True Gliderfield",
    "gps_code": "DK-0010",
    "freq": "",
    "Lat": 56.178925,
    "Lon": 10.076621,
    "Ele": 0.0
  },
  {
    "type": "small_airport",
    "name": "Næstved Airfield",
    "gps_code": "DK-0013",
    "freq": "",
    "Lat": 55.210902,
    "Lon": 11.717592,
    "Ele": 3.0
  },
  {
    "type": "small_airport",
    "name": "Nordborg Pøl Airfield",
    "gps_code": "DK-0014",
    "freq": "",
    "Lat": 55.07485,
    "Lon": 9.753379,
    "Ele": 15.8
  },
  {
    "type": "small_airport",
    "name": "Aversi Airfield",
    "gps_code": "DK-0015",
    "freq": "",
    "Lat": 55.342295,
    "Lon": 11.832681,
    "Ele": 0.0
  },
  {
    "type": "small_airport",
    "name": "Sølager Airfiield",
    "gps_code": "DK-0016",
    "freq": "",
    "Lat": 55.949956,
    "Lon": 11.925052,
    "Ele": 0.0
  },
  {
    "type": "small_airport",
    "name": "Ejstrupholm Airfield",
    "gps_code": "DK-0017",
    "freq": "",
    "Lat": 55.990993,
    "Lon": 9.267537,
    "Ele": 0.0
  },
  {
    "type": "small_airport",
    "name": "Filskov Airfield",
    "gps_code": "DK-0018",
    "freq": "",
    "Lat": 55.81478,
    "Lon": 9.047152,
    "Ele": 0.0
  },
  {
    "type": "small_airport",
    "name": "Estruplund Airfield",
    "gps_code": "DK-0019",
    "freq": "",
    "Lat": 56.557898,
    "Lon": 10.358906,
    "Ele": 4.3
  },
  {
    "type": "small_airport",
    "name": "Frederikssund Syd Flyveplads",
    "gps_code": "DK-0020",
    "freq": "",
    "Lat": 55.814761,
    "Lon": 12.081471,
    "Ele": 0.0
  },
  {
    "type": "small_airport",
    "name": "Gesten Glider Field",
    "gps_code": "DK-0021",
    "freq": "",
    "Lat": 55.550967,
    "Lon": 9.189979,
    "Ele": 0.0
  },
  {
    "type": "small_airport",
    "name": "Frederikssund Nord Glider Field",
    "gps_code": "DK-0022",
    "freq": "",
    "Lat": 55.852511,
    "Lon": 12.074404,
    "Ele": 0.0
  },
  {
    "type": "small_airport",
    "name": "Grønbæk Airfield",
    "gps_code": "DK-0023",
    "freq": "",
    "Lat": 56.270588,
    "Lon": 9.623194,
    "Ele": 0.0
  },
  {
    "type": "small_airport",
    "name": "Orupgård Airfield",
    "gps_code": "DK-0024",
    "freq": "",
    "Lat": 54.76877,
    "Lon": 11.948487,
    "Ele": 0.0
  },
  {
    "type": "small_airport",
    "name": "Rolfsted Airfield",
    "gps_code": "DK-0025",
    "freq": "",
    "Lat": 55.325083,
    "Lon": 10.581682,
    "Ele": 0.0
  },
  {
    "type": "small_airport",
    "name": "Sønder Felding Airfield",
    "gps_code": "DK-0026",
    "freq": "",
    "Lat": 55.946667,
    "Lon": 8.743333,
    "Ele": 0.0
  },
  {
    "type": "small_airport",
    "name": "Varde Airfield",
    "gps_code": "DK-0028",
    "freq": "",
    "Lat": 55.607778,
    "Lon": 8.440278,
    "Ele": 0.0
  },
  {
    "type": "small_airport",
    "name": "Sulkendrup Airstrip",
    "gps_code": "DK-0029",
    "freq": "",
    "Lat": 55.283692,
    "Lon": 10.714227,
    "Ele": 0.0
  },
  {
    "type": "small_airport",
    "name": "Holsted Private Airfield",
    "gps_code": "DK-0030",
    "freq": "",
    "Lat": 55.561962,
    "Lon": 8.936523,
    "Ele": 0.0
  },
  {
    "type": "small_airport",
    "name": "North Jutland Ultralight Flying Club",
    "gps_code": "DK-0031",
    "freq": "",
    "Lat": 57.247811,
    "Lon": 9.940858,
    "Ele": 0.0
  },
  {
    "type": "small_airport",
    "name": "Vejrø Airfield",
    "gps_code": "DK-0032",
    "freq": "",
    "Lat": 55.025703,
    "Lon": 11.347842,
    "Ele": 0.3
  },
  {
    "type": "small_airport",
    "name": "Bjedstrup Airstrip",
    "gps_code": "DK-0033",
    "freq": "",
    "Lat": 56.071002,
    "Lon": 9.867514,
    "Ele": 89.9
  },
  {
    "type": "small_airport",
    "name": "Slagelse Private Airstrip",
    "gps_code": "DK-0034",
    "freq": "",
    "Lat": 55.359919,
    "Lon": 11.309601,
    "Ele": 10.1
  },
  {
    "type": "small_airport",
    "name": "Ølgod / Vallund Airfield",
    "gps_code": "DK-0035",
    "freq": "",
    "Lat": 55.833411,
    "Lon": 8.552873,
    "Ele": 39.6
  },
  {
    "type": "small_airport",
    "name": "Revninge Airfield",
    "gps_code": "DK-0036",
    "freq": "",
    "Lat": 55.418985,
    "Lon": 10.670596,
    "Ele": 0.0
  },
  {
    "type": "small_airport",
    "name": "Gilleleje Airstrip",
    "gps_code": "DK-0037",
    "freq": "",
    "Lat": 56.106298,
    "Lon": 12.323405,
    "Ele": 0.0
  },
  {
    "type": "small_airport",
    "name": "Bjørnø Airfield",
    "gps_code": "DK-0038",
    "freq": "",
    "Lat": 55.067742,
    "Lon": 10.241796,
    "Ele": 4.3
  },
  {
    "type": "small_airport",
    "name": "Hesselø Airstrip",
    "gps_code": "DK-0039",
    "freq": "",
    "Lat": 56.198194,
    "Lon": 11.701118,
    "Ele": 0.0
  },
  {
    "type": "small_airport",
    "name": "Tunø Airstrip",
    "gps_code": "DK-0040",
    "freq": "",
    "Lat": 55.956832,
    "Lon": 10.409408,
    "Ele": 0.0
  },
  {
    "type": "small_airport",
    "name": "Kaleko Airstrip",
    "gps_code": "DK-0043",
    "freq": "",
    "Lat": 55.09864,
    "Lon": 10.2688,
    "Ele": 14.0
  },
  {
    "type": "small_airport",
    "name": "Emmelev Flyveplads",
    "gps_code": "DK-0044",
    "freq": "",
    "Lat": 56.47528,
    "Lon": 10.78563,
    "Ele": 0.0
  },
  {
    "type": "small_airport",
    "name": "Fårbæk Private Airstrip",
    "gps_code": "DK-0045",
    "freq": "",
    "Lat": 56.367199,
    "Lon": 9.067647,
    "Ele": 0.0
  },
  {
    "type": "small_airport",
    "name": "Solbjerg Airfield",
    "gps_code": "DK-0046",
    "freq": "",
    "Lat": 56.057195,
    "Lon": 10.081105,
    "Ele": 0.0
  },
  {
    "type": "small_airport",
    "name": "Drejø Airstrip",
    "gps_code": "DK-0047",
    "freq": "",
    "Lat": 54.9741,
    "Lon": 10.39631,
    "Ele": 0.0
  },
  {
    "type": "small_airport",
    "name": "Vester Åby Private Airstrip",
    "gps_code": "DK-0048",
    "freq": "",
    "Lat": 55.092503,
    "Lon": 10.368004,
    "Ele": 0.0
  },
  {
    "type": "small_airport",
    "name": "Bramming Airstrip",
    "gps_code": "DK-0049",
    "freq": "",
    "Lat": 55.53471,
    "Lon": 8.79486,
    "Ele": 0.0
  },
  {
    "type": "small_airport",
    "name": "Hundelev Private Airstrip",
    "gps_code": "DK-0050",
    "freq": "",
    "Lat": 57.422473,
    "Lon": 9.862525,
    "Ele": 0.0
  },
  {
    "type": "small_airport",
    "name": "Grimlund/Hoven Airstrip",
    "gps_code": "DK-0051",
    "freq": "",
    "Lat": 55.822478,
    "Lon": 8.717765,
    "Ele": 29.3
  },
  {
    "type": "small_airport",
    "name": "Elsesminde Airfield",
    "gps_code": "DK-0053",
    "freq": "",
    "Lat": 55.93825,
    "Lon": 10.24296,
    "Ele": 0.0
  },
  {
    "type": "small_airport",
    "name": "Avedøre Airfield",
    "gps_code": "DK-0054",
    "freq": "",
    "Lat": 55.619529,
    "Lon": 12.442886,
    "Ele": 4.0
  },
  {
    "type": "small_airport",
    "name": "Skalmstrup Airfield",
    "gps_code": "DK-0056",
    "freq": "",
    "Lat": 56.54294,
    "Lon": 10.19801,
    "Ele": 18.9
  },
  {
    "type": "small_airport",
    "name": "Ærø Airfield",
    "gps_code": "EKAE",
    "freq": "",
    "Lat": 54.852798,
    "Lon": 10.4564,
    "Ele": 0.9
  },
  {
    "type": "medium_airport",
    "name": "Aarhus Airport",
    "gps_code": "EKAH",
    "freq": "119.275",
    "Lat": 56.303331,
    "Lon": 10.618286,
    "Ele": 25.0
  },
  {
    "type": "small_airport",
    "name": "Anholt Airfield",
    "gps_code": "EKAT",
    "freq": "",
    "Lat": 56.698347,
    "Lon": 11.555718,
    "Ele": 7.0
  },
  {
    "type": "small_airport",
    "name": "Arnborg Gliding Center",
    "gps_code": "EKBH",
    "freq": "",
    "Lat": 56.011109,
    "Lon": 9.016041,
    "Ele": 43.9
  },
  {
    "type": "large_airport",
    "name": "Billund Airport",
    "gps_code": "EKBI",
    "freq": "127.575",
    "Lat": 55.740335,
    "Lon": 9.157019,
    "Ele": 75.3
  },
  {
    "type": "large_airport",
    "name": "Copenhagen Kastrup Airport",
    "gps_code": "EKCH",
    "freq": "118.450",
    "Lat": 55.617900848389,
    "Lon": 12.656000137329,
    "Ele": 5.2
  },
  {
    "type": "small_airport",
    "name": "Christianshede Airfield",
    "gps_code": "EKCR",
    "freq": "",
    "Lat": 56.104407,
    "Lon": 9.392495,
    "Ele": 997.9
  },
  {
    "type": "medium_airport",
    "name": "Esbjerg Airport",
    "gps_code": "EKEB",
    "freq": "120.150",
    "Lat": 55.525902,
    "Lon": 8.5534,
    "Ele": 29.6
  },
  {
    "type": "small_airport",
    "name": "Endelave Airfield",
    "gps_code": "EKEL",
    "freq": "129.800",
    "Lat": 55.756753,
    "Lon": 10.248697,
    "Ele": 4.6
  },
  {
    "type": "small_airport",
    "name": "Freerslev",
    "gps_code": "EKFR",
    "freq": "",
    "Lat": 55.898611,
    "Lon": 12.245,
    "Ele": 0.0
  },
  {
    "type": "small_airport",
    "name": "Vøjstrup Glider Field",
    "gps_code": "EKFS",
    "freq": "",
    "Lat": 55.247766,
    "Lon": 10.201228,
    "Ele": 0.0
  },
  {
    "type": "small_airport",
    "name": "Fur Airstrip",
    "gps_code": "EKFU",
    "freq": "",
    "Lat": 56.824886,
    "Lon": 8.987213,
    "Ele": 9.1
  },
  {
    "type": "small_airport",
    "name": "Grønholt Hillerød Airfield",
    "gps_code": "EKGH",
    "freq": "122.500",
    "Lat": 55.941399,
    "Lon": 12.3822,
    "Ele": 29.6
  },
  {
    "type": "small_airport",
    "name": "Gørløse Glider Field",
    "gps_code": "EKGL",
    "freq": "",
    "Lat": 55.8855556,
    "Lon": 12.2280556,
    "Ele": 0.0
  },
  {
    "type": "small_airport",
    "name": "Gørlev Airfield",
    "gps_code": "EKGO",
    "freq": "",
    "Lat": 55.551963,
    "Lon": 11.196999,
    "Ele": 0.0
  },
  {
    "type": "small_airport",
    "name": "Grenaa Airfield",
    "gps_code": "EKGR",
    "freq": "123.500",
    "Lat": 56.442501,
    "Lon": 10.9306,
    "Ele": 6.1
  },
  {
    "type": "small_airport",
    "name": "Annisse flyveplads",
    "gps_code": "EKHE",
    "freq": "",
    "Lat": 55.984722,
    "Lon": 12.214444,
    "Ele": 0.0
  },
  {
    "type": "small_airport",
    "name": "Herning Airfield",
    "gps_code": "EKHG",
    "freq": "121.000",
    "Lat": 56.1847,
    "Lon": 9.04445,
    "Ele": 50.9
  },
  {
    "type": "small_airport",
    "name": "Holbæk (Ny Hagested) Airfield",
    "gps_code": "EKHK",
    "freq": "",
    "Lat": 55.733919,
    "Lon": 11.604706,
    "Ele": 0.6
  },
  {
    "type": "small_airport",
    "name": "Hammer Glider Field",
    "gps_code": "EKHM",
    "freq": "122.475",
    "Lat": 55.908195,
    "Lon": 9.446358,
    "Ele": 88.4
  },
  {
    "type": "small_airport",
    "name": "Lindtorp Airfield",
    "gps_code": "EKHO",
    "freq": "",
    "Lat": 56.396868,
    "Lon": 8.444061,
    "Ele": 14.9
  },
  {
    "type": "small_airport",
    "name": "Haderslev Airfield",
    "gps_code": "EKHV",
    "freq": "122.225",
    "Lat": 55.301829,
    "Lon": 9.524503,
    "Ele": 24.7
  },
  {
    "type": "medium_airport",
    "name": "Midtjyllands Airport / Air Base Karup",
    "gps_code": "EKKA",
    "freq": "120.425",
    "Lat": 56.297139,
    "Lon": 9.104311,
    "Ele": 51.8
  },
  {
    "type": "small_airport",
    "name": "Kalundborg Airfield",
    "gps_code": "EKKL",
    "freq": "",
    "Lat": 55.700011,
    "Lon": 11.250095,
    "Ele": 0.3
  },
  {
    "type": "small_airport",
    "name": "Korsør Airfield",
    "gps_code": "EKKO",
    "freq": "",
    "Lat": 55.337094,
    "Lon": 11.241791,
    "Ele": 11.9
  },
  {
    "type": "small_airport",
    "name": "Kongsted Gliderfield",
    "gps_code": "EKKS",
    "freq": "",
    "Lat": 55.251511,
    "Lon": 12.062726,
    "Ele": 0.0
  },
  {
    "type": "small_airport",
    "name": "Læsø Airport",
    "gps_code": "EKLS",
    "freq": "124.975",
    "Lat": 57.277199,
    "Lon": 11.0001,
    "Ele": 7.6
  },
  {
    "type": "small_airport",
    "name": "Lemvig Airfield",
    "gps_code": "EKLV",
    "freq": "",
    "Lat": 56.502998,
    "Lon": 8.31133,
    "Ele": 29.6
  },
  {
    "type": "medium_airport",
    "name": "Lolland Falster Maribo Airport",
    "gps_code": "EKMB",
    "freq": "127.080",
    "Lat": 54.699447,
    "Lon": 11.438163,
    "Ele": 4.9
  },
  {
    "type": "small_airport",
    "name": "Kostervig Mon Airfield",
    "gps_code": "EKMN",
    "freq": "",
    "Lat": 54.96545,
    "Lon": 12.196483,
    "Ele": 0.9
  },
  {
    "type": "small_airport",
    "name": "Morsø Airfield, Tødsø",
    "gps_code": "EKNM",
    "freq": "",
    "Lat": 56.824402,
    "Lon": 8.78667,
    "Ele": 16.2
  },
  {
    "type": "medium_airport",
    "name": "Odense Hans Christian Andersen Airport",
    "gps_code": "EKOD",
    "freq": "119.525",
    "Lat": 55.475307,
    "Lon": 10.327206,
    "Ele": 17.1
  },
  {
    "type": "small_airport",
    "name": "Kruså-Padborg Airfield",
    "gps_code": "EKPB",
    "freq": "127.475",
    "Lat": 54.8703,
    "Lon": 9.27901,
    "Ele": 26.8
  },
  {
    "type": "small_airport",
    "name": "Rårup Airfield",
    "gps_code": "EKRA",
    "freq": "",
    "Lat": 55.777572,
    "Lon": 9.94154,
    "Ele": 39.9
  },
  {
    "type": "small_airport",
    "name": "Randers Airfield",
    "gps_code": "EKRD",
    "freq": "",
    "Lat": 56.506599,
    "Lon": 10.0364,
    "Ele": 42.4
  },
  {
    "type": "medium_airport",
    "name": "Copenhagen Roskilde Airport",
    "gps_code": "EKRK",
    "freq": "125.525",
    "Lat": 55.585602,
    "Lon": 12.1314,
    "Ele": 44.5
  },
  {
    "type": "medium_airport",
    "name": "Bornholm Airport",
    "gps_code": "EKRN",
    "freq": "118.325",
    "Lat": 55.063301,
    "Lon": 14.7596,
    "Ele": 15.8
  },
  {
    "type": "small_airport",
    "name": "Ringsted Airfield",
    "gps_code": "EKRS",
    "freq": "",
    "Lat": 55.4258,
    "Lon": 11.8067,
    "Ele": 34.4
  },
  {
    "type": "small_airport",
    "name": "Sæby (Ottestrup) Airfield",
    "gps_code": "EKSA",
    "freq": "",
    "Lat": 57.346699,
    "Lon": 10.407,
    "Ele": 33.5
  },
  {
    "type": "medium_airport",
    "name": "Sønderborg Airport",
    "gps_code": "EKSB",
    "freq": "126.400",
    "Lat": 54.96440124511719,
    "Lon": 9.791729927062988,
    "Ele": 7.3
  },
  {
    "type": "small_airport",
    "name": "Spjald Airfield",
    "gps_code": "EKSD",
    "freq": "",
    "Lat": 56.102699,
    "Lon": 8.51423,
    "Ele": 75.9
  },
  {
    "type": "small_airport",
    "name": "Slaglille Airfield",
    "gps_code": "EKSL",
    "freq": "",
    "Lat": 55.452619,
    "Lon": 11.643544,
    "Ele": 35.1
  },
  {
    "type": "medium_airport",
    "name": "Sindal Airport",
    "gps_code": "EKSN",
    "freq": "118.750",
    "Lat": 57.503502,
    "Lon": 10.2294,
    "Ele": 28.0
  },
  {
    "type": "medium_airport",
    "name": "Skrydstrup Air Base",
    "gps_code": "EKSP",
    "freq": "127.475",
    "Lat": 55.221048,
    "Lon": 9.26702,
    "Ele": 43.0
  },
  {
    "type": "small_airport",
    "name": "Samsø Airfield",
    "gps_code": "EKSS",
    "freq": "123.500",
    "Lat": 55.889073,
    "Lon": 10.613766,
    "Ele": 0.3
  },
  {
    "type": "small_airport",
    "name": "Sydfyn (Tasinge) Airfield",
    "gps_code": "EKST",
    "freq": "",
    "Lat": 55.016602,
    "Lon": 10.5633,
    "Ele": 2.1
  },
  {
    "type": "medium_airport",
    "name": "Skive Airport",
    "gps_code": "EKSV",
    "freq": "120.425",
    "Lat": 56.550201,
    "Lon": 9.17298,
    "Ele": 22.6
  },
  {
    "type": "small_airport",
    "name": "Tønder Airfield",
    "gps_code": "EKTD",
    "freq": "",
    "Lat": 54.929699,
    "Lon": 8.84057,
    "Ele": 0.3
  },
  {
    "type": "medium_airport",
    "name": "Thisted Airport",
    "gps_code": "EKTS",
    "freq": "118.125",
    "Lat": 57.068802,
    "Lon": 8.70522,
    "Ele": 7.0
  },
  {
    "type": "small_airport",
    "name": "Viborg Airfield",
    "gps_code": "EKVB",
    "freq": "",
    "Lat": 56.409992,
    "Lon": 9.409277,
    "Ele": 22.9
  },
  {
    "type": "medium_airport",
    "name": "Kolding Vamdrup Airfield",
    "gps_code": "EKVD",
    "freq": "120.500",
    "Lat": 55.436298,
    "Lon": 9.33092,
    "Ele": 43.6
  },
  {
    "type": "small_airport",
    "name": "Vesthimmerland Airfield",
    "gps_code": "EKVH",
    "freq": "123.975",
    "Lat": 56.846613,
    "Lon": 9.460602,
    "Ele": 36.3
  },
  {
    "type": "medium_airport",
    "name": "Stauning Vestjylland  Airport",
    "gps_code": "EKVJ",
    "freq": "121.400",
    "Lat": 55.990101,
    "Lon": 8.35391,
    "Ele": 5.2
  },
  {
    "type": "medium_airport",
    "name": "Aalborg Airport",
    "gps_code": "EKYT",
    "freq": "123.975",
    "Lat": 57.094763,
    "Lon": 9.84993,
    "Ele": 3.0
  }
]