[
  {
    "type": "small_airport",
    "name": "Ledbury Airfield",
    "gps_code": "EG34",
    "freq": "",
    "Lat": 52.0019,
    "Lon": -2.47416,
    "Ele": 76.2
  },
  {
    "type": "small_airport",
    "name": "Milfield Glider Field",
    "gps_code": "EG3L",
    "freq": "",
    "Lat": 55.591636,
    "Lon": -2.087231,
    "Ele": 0.0
  },
  {
    "type": "small_airport",
    "name": "Bruntingthorpe Aerodrome",
    "gps_code": "EG74",
    "freq": "122.825",
    "Lat": 52.492972,
    "Lon": -1.12509,
    "Ele": 142.3
  },
  {
    "type": "large_airport",
    "name": "Belfast International Airport",
    "gps_code": "EGAA",
    "freq": "128.500",
    "Lat": 54.6575012207,
    "Lon": -6.21582984924,
    "Ele": 81.7
  },
  {
    "type": "medium_airport",
    "name": "Enniskillen/St Angelo Airport",
    "gps_code": "EGAB",
    "freq": "123.205",
    "Lat": 54.398274,
    "Lon": -7.651179,
    "Ele": 47.2
  },
  {
    "type": "medium_airport",
    "name": "George Best Belfast City Airport",
    "gps_code": "EGAC",
    "freq": "130.850",
    "Lat": 54.618099,
    "Lon": -5.8725,
    "Ele": 4.6
  },
  {
    "type": "small_airport",
    "name": "Newtownards Airport",
    "gps_code": "EGAD",
    "freq": "128.305",
    "Lat": 54.5811,
    "Lon": -5.69194,
    "Ele": 2.7
  },
  {
    "type": "medium_airport",
    "name": "City of Derry Airport",
    "gps_code": "EGAE",
    "freq": "123.625",
    "Lat": 55.04280090332031,
    "Lon": -7.161109924316406,
    "Ele": 6.7
  },
  {
    "type": "large_airport",
    "name": "Birmingham Airport",
    "gps_code": "EGBB",
    "freq": "118.050",
    "Lat": 52.453899,
    "Lon": -1.74803,
    "Ele": 99.7
  },
  {
    "type": "small_airport",
    "name": "Derby Airfield",
    "gps_code": "EGBD",
    "freq": "118.350",
    "Lat": 52.859699,
    "Lon": -1.6175,
    "Ele": 53.3
  },
  {
    "type": "medium_airport",
    "name": "Coventry Airport",
    "gps_code": "EGBE",
    "freq": "123.830",
    "Lat": 52.369701,
    "Lon": -1.47972,
    "Ele": 81.4
  },
  {
    "type": "small_airport",
    "name": "Bedford Aerodrome",
    "gps_code": "EGBF",
    "freq": "119.025",
    "Lat": 52.2325,
    "Lon": -0.445556,
    "Ele": 82.3
  },
  {
    "type": "small_airport",
    "name": "Leicester Airport",
    "gps_code": "EGBG",
    "freq": "122.125",
    "Lat": 52.606574,
    "Lon": -1.030226,
    "Ele": 143.0
  },
  {
    "type": "medium_airport",
    "name": "Gloucestershire Airport",
    "gps_code": "EGBJ",
    "freq": "128.550",
    "Lat": 51.89419937133789,
    "Lon": -2.167220115661621,
    "Ele": 30.8
  },
  {
    "type": "small_airport",
    "name": "Sywell Aerodrome",
    "gps_code": "EGBK",
    "freq": "122.700",
    "Lat": 52.305302,
    "Lon": -0.793056,
    "Ele": 130.8
  },
  {
    "type": "small_airport",
    "name": "Tatenhill Airfield",
    "gps_code": "EGBM",
    "freq": "124.075",
    "Lat": 52.81431,
    "Lon": -1.767942,
    "Ele": 133.8
  },
  {
    "type": "small_airport",
    "name": "Wolverhampton Halfpenny Green Airport",
    "gps_code": "EGBO",
    "freq": "123.000",
    "Lat": 52.517502,
    "Lon": -2.25944,
    "Ele": 86.3
  },
  {
    "type": "small_airport",
    "name": "Cotswold Airport",
    "gps_code": "EGBP",
    "freq": "118.900",
    "Lat": 51.668528,
    "Lon": -2.056599,
    "Ele": 132.0
  },
  {
    "type": "small_airport",
    "name": "Shobdon Airfield",
    "gps_code": "EGBS",
    "freq": "118.155",
    "Lat": 52.241699,
    "Lon": -2.88111,
    "Ele": 96.9
  },
  {
    "type": "small_airport",
    "name": "Turweston Aerodrome",
    "gps_code": "EGBT",
    "freq": "122.175",
    "Lat": 52.040798,
    "Lon": -1.09556,
    "Ele": 136.6
  },
  {
    "type": "small_airport",
    "name": "Wellesbourne Mountford Airfield",
    "gps_code": "EGBW",
    "freq": "124.030",
    "Lat": 52.189353,
    "Lon": -1.614089,
    "Ele": 48.5
  },
  {
    "type": "small_airport",
    "name": "Coal Aston Airfield",
    "gps_code": "EGCA",
    "freq": "",
    "Lat": 53.304809,
    "Lon": -1.42886,
    "Ele": 228.6
  },
  {
    "type": "small_airport",
    "name": "Manchester Barton Aerodrome",
    "gps_code": "EGCB",
    "freq": "120.250",
    "Lat": 53.471699,
    "Lon": -2.38972,
    "Ele": 22.3
  },
  {
    "type": "large_airport",
    "name": "Manchester Airport",
    "gps_code": "EGCC",
    "freq": "135.000",
    "Lat": 53.349375,
    "Lon": -2.279521,
    "Ele": 78.3
  },
  {
    "type": "small_airport",
    "name": "Sandtoft Airfield",
    "gps_code": "EGCF",
    "freq": "130.425",
    "Lat": 53.559358,
    "Lon": -0.859043,
    "Ele": 3.4
  },
  {
    "type": "small_airport",
    "name": "Strubby Airfield",
    "gps_code": "EGCG",
    "freq": "",
    "Lat": 53.310822,
    "Lon": 0.172098,
    "Ele": 13.7
  },
  {
    "type": "small_airport",
    "name": "Sherburn-in-Elmet Airfield",
    "gps_code": "EGCJ",
    "freq": "126.600",
    "Lat": 53.788458,
    "Lon": -1.216877,
    "Ele": 7.9
  },
  {
    "type": "small_airport",
    "name": "Caernarfon Airport",
    "gps_code": "EGCK",
    "freq": "122.225",
    "Lat": 53.101819,
    "Lon": -4.337614,
    "Ele": 0.3
  },
  {
    "type": "small_airport",
    "name": "Fenland Airfield",
    "gps_code": "EGCL",
    "freq": "122.930",
    "Lat": 52.739201,
    "Lon": -0.029722,
    "Ele": 2.4
  },
  {
    "type": "small_airport",
    "name": "Sturgate Airfield",
    "gps_code": "EGCS",
    "freq": "130.300",
    "Lat": 53.381242,
    "Lon": -0.6848,
    "Ele": 17.7
  },
  {
    "type": "small_airport",
    "name": "Tilstock Airfield",
    "gps_code": "EGCT",
    "freq": "122.075",
    "Lat": 52.932363,
    "Lon": -2.647435,
    "Ele": 91.7
  },
  {
    "type": "small_airport",
    "name": "Sleap Airfield",
    "gps_code": "EGCV",
    "freq": "122.450",
    "Lat": 52.834809,
    "Lon": -2.770312,
    "Ele": 83.8
  },
  {
    "type": "small_airport",
    "name": "Welshpool Airport",
    "gps_code": "EGCW",
    "freq": "128.000",
    "Lat": 52.628601,
    "Lon": -3.15333,
    "Ele": 71.0
  },
  {
    "type": "medium_airport",
    "name": "Royal Marines Base Chivenor",
    "gps_code": "EGDC",
    "freq": "130.200",
    "Lat": 51.0872,
    "Lon": -4.15034,
    "Ele": 8.2
  },
  {
    "type": "small_airport",
    "name": "Upavon Aerodrome",
    "gps_code": "EGDJ",
    "freq": "129.975",
    "Lat": 51.28657,
    "Lon": -1.782239,
    "Ele": 175.0
  },
  {
    "type": "medium_airport",
    "name": "MoD Boscombe Down",
    "gps_code": "EGDM",
    "freq": "130.000",
    "Lat": 51.152199,
    "Lon": -1.74741,
    "Ele": 124.1
  },
  {
    "type": "small_airport",
    "name": "Netheravon Airfield",
    "gps_code": "EGDN",
    "freq": "128.300",
    "Lat": 51.2472,
    "Lon": -1.75425,
    "Ele": 139.0
  },
  {
    "type": "small_airport",
    "name": "Predannack Airfield",
    "gps_code": "EGDO",
    "freq": "134.050",
    "Lat": 50.001202,
    "Lon": -5.23083,
    "Ele": 89.9
  },
  {
    "type": "medium_airport",
    "name": "RNAS Culdrose",
    "gps_code": "EGDR",
    "freq": "134.050",
    "Lat": 50.08610153198242,
    "Lon": -5.255710124969482,
    "Ele": 81.4
  },
  {
    "type": "small_airport",
    "name": "RNAS Merryfield",
    "gps_code": "EGDW",
    "freq": "",
    "Lat": 50.964283,
    "Lon": -2.938443,
    "Ele": 46.0
  },
  {
    "type": "medium_airport",
    "name": "MOD St Athan",
    "gps_code": "EGDX",
    "freq": "126.625",
    "Lat": 51.405229,
    "Lon": -3.433254,
    "Ele": 49.7
  },
  {
    "type": "medium_airport",
    "name": "RNAS Yeovilton",
    "gps_code": "EGDY",
    "freq": "127.350",
    "Lat": 51.009399,
    "Lon": -2.63882,
    "Ele": 22.9
  },
  {
    "type": "medium_airport",
    "name": "Campbeltown Airport",
    "gps_code": "EGEC",
    "freq": "125.905",
    "Lat": 55.437198638916016,
    "Lon": -5.686389923095703,
    "Ele": 12.8
  },
  {
    "type": "medium_airport",
    "name": "Eday Airport",
    "gps_code": "EGED",
    "freq": "",
    "Lat": 59.19060134887695,
    "Lon": -2.7722198963165283,
    "Ele": 3.0
  },
  {
    "type": "small_airport",
    "name": "Fair Isle Airport",
    "gps_code": "EGEF",
    "freq": "118.025",
    "Lat": 59.534721,
    "Lon": -1.628509,
    "Ele": 68.0
  },
  {
    "type": "small_airport",
    "name": "Whalsay Airstrip",
    "gps_code": "EGEH",
    "freq": "",
    "Lat": 60.376835,
    "Lon": -0.927229,
    "Ele": 30.5
  },
  {
    "type": "small_airport",
    "name": "Broadford Airstrip",
    "gps_code": "EGEI",
    "freq": "",
    "Lat": 57.253399,
    "Lon": -5.8279,
    "Ele": 7.3
  },
  {
    "type": "small_airport",
    "name": "Coll Airport",
    "gps_code": "EGEL",
    "freq": "125.000",
    "Lat": 56.601898,
    "Lon": -6.61778,
    "Ele": 6.4
  },
  {
    "type": "small_airport",
    "name": "North Ronaldsay Airport",
    "gps_code": "EGEN",
    "freq": "118.300",
    "Lat": 59.3675003052,
    "Lon": -2.43443989754,
    "Ele": 12.2
  },
  {
    "type": "small_airport",
    "name": "Oban Airport",
    "gps_code": "EGEO",
    "freq": "118.055",
    "Lat": 56.463501,
    "Lon": -5.39967,
    "Ele": 6.1
  },
  {
    "type": "small_airport",
    "name": "Papa Westray Airport",
    "gps_code": "EGEP",
    "freq": "",
    "Lat": 59.351699829100006,
    "Lon": -2.9002799987800003,
    "Ele": 27.7
  },
  {
    "type": "small_airport",
    "name": "Stronsay Airport",
    "gps_code": "EGER",
    "freq": "",
    "Lat": 59.1553,
    "Lon": -2.64139,
    "Ele": 11.9
  },
  {
    "type": "small_airport",
    "name": "Sanday Airport",
    "gps_code": "EGES",
    "freq": "",
    "Lat": 59.250301,
    "Lon": -2.57667,
    "Ele": 20.7
  },
  {
    "type": "small_airport",
    "name": "Lerwick / Tingwall Airport",
    "gps_code": "EGET",
    "freq": "122.600",
    "Lat": 60.1922,
    "Lon": -1.24361,
    "Ele": 13.1
  },
  {
    "type": "small_airport",
    "name": "Westray Airport",
    "gps_code": "EGEW",
    "freq": "118.300",
    "Lat": 59.3502998352,
    "Lon": -2.95000004768,
    "Ele": 8.8
  },
  {
    "type": "small_airport",
    "name": "Colonsay Airstrip",
    "gps_code": "EGEY",
    "freq": "123.800",
    "Lat": 56.057499,
    "Lon": -6.24306,
    "Ele": 13.4
  },
  {
    "type": "small_airport",
    "name": "Aberporth Airport",
    "gps_code": "EGFA",
    "freq": "122.150",
    "Lat": 52.1152992249,
    "Lon": -4.556940078739999,
    "Ele": 130.5
  },
  {
    "type": "small_airport",
    "name": "Llanbedr Airfield",
    "gps_code": "EGFD",
    "freq": "29.252",
    "Lat": 52.811699,
    "Lon": -4.12358,
    "Ele": 9.1
  },
  {
    "type": "medium_airport",
    "name": "Haverfordwest Airport",
    "gps_code": "EGFE",
    "freq": "122.200",
    "Lat": 51.833099365234375,
    "Lon": -4.9611101150512695,
    "Ele": 48.5
  },
  {
    "type": "medium_airport",
    "name": "Cardiff International Airport",
    "gps_code": "EGFF",
    "freq": "119.155",
    "Lat": 51.396702,
    "Lon": -3.34333,
    "Ele": 67.1
  },
  {
    "type": "medium_airport",
    "name": "Swansea Airport",
    "gps_code": "EGFH",
    "freq": "119.700",
    "Lat": 51.601366,
    "Lon": -4.071006,
    "Ele": 91.1
  },
  {
    "type": "small_airport",
    "name": "Pembrey West Wales Airport",
    "gps_code": "EGFP",
    "freq": "124.400",
    "Lat": 51.713902,
    "Lon": -4.31222,
    "Ele": 4.6
  },
  {
    "type": "medium_airport",
    "name": "Bristol Airport",
    "gps_code": "EGGD",
    "freq": "126.025",
    "Lat": 51.382702,
    "Lon": -2.71909,
    "Ele": 189.6
  },
  {
    "type": "medium_airport",
    "name": "Liverpool John Lennon Airport",
    "gps_code": "EGGP",
    "freq": "119.850",
    "Lat": 53.333599,
    "Lon": -2.84972,
    "Ele": 24.4
  },
  {
    "type": "large_airport",
    "name": "London Luton Airport",
    "gps_code": "EGGW",
    "freq": "129.550",
    "Lat": 51.874699,
    "Lon": -0.368333,
    "Ele": 160.3
  },
  {
    "type": "small_airport",
    "name": "Compton Abbas Aerodrome",
    "gps_code": "EGHA",
    "freq": "122.700",
    "Lat": 50.967201,
    "Lon": -2.15361,
    "Ele": 247.2
  },
  {
    "type": "small_airport",
    "name": "Land's End Airport",
    "gps_code": "EGHC",
    "freq": "130.700",
    "Lat": 50.102798,
    "Lon": -5.67056,
    "Ele": 121.3
  },
  {
    "type": "small_airport",
    "name": "St. Mary's Airport",
    "gps_code": "EGHE",
    "freq": "123.150",
    "Lat": 49.913375,
    "Lon": -6.291894,
    "Ele": 35.4
  },
  {
    "type": "small_airport",
    "name": "Solent Airport",
    "gps_code": "EGHF",
    "freq": "118.930",
    "Lat": 50.814201,
    "Lon": -1.20333,
    "Ele": 9.8
  },
  {
    "type": "small_airport",
    "name": "Yeovil/Westland Aerodrome",
    "gps_code": "EGHG",
    "freq": "125.400",
    "Lat": 50.939999,
    "Lon": -2.65861,
    "Ele": 61.6
  },
  {
    "type": "medium_airport",
    "name": "Bournemouth Airport",
    "gps_code": "EGHH",
    "freq": "119.475",
    "Lat": 50.780483,
    "Lon": -1.839576,
    "Ele": 11.6
  },
  {
    "type": "medium_airport",
    "name": "Southampton Airport",
    "gps_code": "EGHI",
    "freq": "120.230",
    "Lat": 50.950298,
    "Lon": -1.3568,
    "Ele": 13.4
  },
  {
    "type": "small_airport",
    "name": "Bembridge Airport",
    "gps_code": "EGHJ",
    "freq": "123.250",
    "Lat": 50.678101,
    "Lon": -1.10944,
    "Ele": 16.2
  },
  {
    "type": "medium_airport",
    "name": "Lasham Airfield",
    "gps_code": "EGHL",
    "freq": "125.250",
    "Lat": 51.18744,
    "Lon": -1.031663,
    "Ele": 188.4
  },
  {
    "type": "small_airport",
    "name": "Isle of Wight/Sandown Airport",
    "gps_code": "EGHN",
    "freq": "123.500",
    "Lat": 50.653099,
    "Lon": -1.18222,
    "Ele": 16.8
  },
  {
    "type": "small_airport",
    "name": "Thruxton Aerodrome",
    "gps_code": "EGHO",
    "freq": "130.450",
    "Lat": 51.210602,
    "Lon": -1.6,
    "Ele": 97.2
  },
  {
    "type": "small_airport",
    "name": "Popham Airfield",
    "gps_code": "EGHP",
    "freq": "129.805",
    "Lat": 51.194688,
    "Lon": -1.233071,
    "Ele": 167.6
  },
  {
    "type": "medium_airport",
    "name": "Cornwall Airport Newquay",
    "gps_code": "EGHQ",
    "freq": "133.400",
    "Lat": 50.440601,
    "Lon": -4.99541,
    "Ele": 118.9
  },
  {
    "type": "small_airport",
    "name": "Goodwood Aerodrome",
    "gps_code": "EGHR",
    "freq": "122.455",
    "Lat": 50.859832,
    "Lon": -0.760073,
    "Ele": 29.9
  },
  {
    "type": "small_airport",
    "name": "Henstridge Airfield",
    "gps_code": "EGHS",
    "freq": "130.250",
    "Lat": 50.985001,
    "Lon": -2.35722,
    "Ele": 56.1
  },
  {
    "type": "small_airport",
    "name": "Eaglescott Airfield",
    "gps_code": "EGHU",
    "freq": "123.000",
    "Lat": 50.928651,
    "Lon": -3.988446,
    "Ele": 199.6
  },
  {
    "type": "small_airport",
    "name": "Truro Aerodrome",
    "gps_code": "EGHY",
    "freq": "129.800",
    "Lat": 50.2784,
    "Lon": -5.14229,
    "Ele": 38.7
  },
  {
    "type": "medium_airport",
    "name": "Brighton City Airport",
    "gps_code": "EGKA",
    "freq": "123.155",
    "Lat": 50.835602,
    "Lon": -0.297222,
    "Ele": 2.1
  },
  {
    "type": "medium_airport",
    "name": "London Biggin Hill Airport",
    "gps_code": "EGKB",
    "freq": "129.400",
    "Lat": 51.33079910279999,
    "Lon": 0.0324999988079,
    "Ele": 182.3
  },
  {
    "type": "small_airport",
    "name": "Challock Airfield",
    "gps_code": "EGKE",
    "freq": "",
    "Lat": 51.208302,
    "Lon": 0.829167,
    "Ele": 182.9
  },
  {
    "type": "small_airport",
    "name": "Headcorn Aerodrome",
    "gps_code": "EGKH",
    "freq": "122.000",
    "Lat": 51.156898,
    "Lon": 0.641667,
    "Ele": 21.9
  },
  {
    "type": "large_airport",
    "name": "London Gatwick Airport",
    "gps_code": "EGKK",
    "freq": "126.825",
    "Lat": 51.148771,
    "Lon": -0.192089,
    "Ele": 61.6
  },
  {
    "type": "small_airport",
    "name": "Deanland Lewes Airfield",
    "gps_code": "EGKL",
    "freq": "129.730",
    "Lat": 50.881093,
    "Lon": 0.154345,
    "Ele": 21.0
  },
  {
    "type": "small_airport",
    "name": "Redhill Aerodrome",
    "gps_code": "EGKR",
    "freq": "119.600",
    "Lat": 51.2136,
    "Lon": -0.138611,
    "Ele": 67.7
  },
  {
    "type": "small_airport",
    "name": "Bodmin Airfield",
    "gps_code": "EGLA",
    "freq": "122.700",
    "Lat": 50.499698638916016,
    "Lon": -4.665830135345459,
    "Ele": 198.1
  },
  {
    "type": "medium_airport",
    "name": "London City Airport",
    "gps_code": "EGLC",
    "freq": "132.700",
    "Lat": 51.505299,
    "Lon": 0.055278,
    "Ele": 5.8
  },
  {
    "type": "small_airport",
    "name": "Denham Aerodrome",
    "gps_code": "EGLD",
    "freq": "130.730",
    "Lat": 51.588299,
    "Lon": -0.513056,
    "Ele": 75.9
  },
  {
    "type": "medium_airport",
    "name": "Farnborough Airport",
    "gps_code": "EGLF",
    "freq": "134.350",
    "Lat": 51.275799,
    "Lon": -0.776333,
    "Ele": 72.5
  },
  {
    "type": "small_airport",
    "name": "Chalgrove Airfield",
    "gps_code": "EGLJ",
    "freq": "125.400",
    "Lat": 51.676102,
    "Lon": -1.08083,
    "Ele": 73.2
  },
  {
    "type": "medium_airport",
    "name": "Blackbushe Airport",
    "gps_code": "EGLK",
    "freq": "122.300",
    "Lat": 51.323898,
    "Lon": -0.8475,
    "Ele": 99.1
  },
  {
    "type": "large_airport",
    "name": "London Heathrow Airport",
    "gps_code": "EGLL",
    "freq": "113.750",
    "Lat": 51.4706,
    "Lon": -0.461941,
    "Ele": 25.3
  },
  {
    "type": "small_airport",
    "name": "White Waltham Airfield",
    "gps_code": "EGLM",
    "freq": "122.600",
    "Lat": 51.500801,
    "Lon": -0.774444,
    "Ele": 39.9
  },
  {
    "type": "small_airport",
    "name": "Brimpton Airfield",
    "gps_code": "EGLP",
    "freq": "135.125",
    "Lat": 51.383456,
    "Lon": -1.172096,
    "Ele": 64.0
  },
  {
    "type": "small_airport",
    "name": "Old Sarum Airfield",
    "gps_code": "EGLS",
    "freq": "123.205",
    "Lat": 51.0989,
    "Lon": -1.78417,
    "Ele": 86.9
  },
  {
    "type": "small_airport",
    "name": "Fowlmere Airfield",
    "gps_code": "EGMA",
    "freq": "120.925",
    "Lat": 52.077499,
    "Lon": 0.061667,
    "Ele": 37.8
  },
  {
    "type": "medium_airport",
    "name": "London Southend Airport",
    "gps_code": "EGMC",
    "freq": "130.775",
    "Lat": 51.570562,
    "Lon": 0.693627,
    "Ele": 14.9
  },
  {
    "type": "medium_airport",
    "name": "Lydd London Ashford Airport",
    "gps_code": "EGMD",
    "freq": "120.700",
    "Lat": 50.956246,
    "Lon": 0.939074,
    "Ele": 4.0
  },
  {
    "type": "small_airport",
    "name": "Farthing Corner / Stoneacre Farm Airfield",
    "gps_code": "EGMF",
    "freq": "",
    "Lat": 51.332788,
    "Lon": 0.601058,
    "Ele": 128.0
  },
  {
    "type": "small_airport",
    "name": "Little Gransden Airfield",
    "gps_code": "EGMJ",
    "freq": "130.850",
    "Lat": 52.165977,
    "Lon": -0.149222,
    "Ele": 76.2
  },
  {
    "type": "small_airport",
    "name": "Damyns Hall Aerodrome",
    "gps_code": "EGML",
    "freq": "",
    "Lat": 51.527561,
    "Lon": 0.244189,
    "Ele": 18.0
  },
  {
    "type": "small_airport",
    "name": "Thurrock Airfield",
    "gps_code": "EGMT",
    "freq": "",
    "Lat": 51.537505,
    "Lon": 0.367634,
    "Ele": 6.1
  },
  {
    "type": "medium_airport",
    "name": "Carlisle Lake District Airport",
    "gps_code": "EGNC",
    "freq": "123.600",
    "Lat": 54.9375,
    "Lon": -2.80917,
    "Ele": 57.9
  },
  {
    "type": "small_airport",
    "name": "Retford Gamston Airport",
    "gps_code": "EGNE",
    "freq": "130.475",
    "Lat": 53.280602,
    "Lon": -0.951389,
    "Ele": 27.7
  },
  {
    "type": "small_airport",
    "name": "Netherthorpe Airfield",
    "gps_code": "EGNF",
    "freq": "123.275",
    "Lat": 53.317182,
    "Lon": -1.195573,
    "Ele": 76.2
  },
  {
    "type": "small_airport",
    "name": "Bagby Thirsk Airfield",
    "gps_code": "EGNG",
    "freq": "123.250",
    "Lat": 54.211226,
    "Lon": -1.292417,
    "Ele": 49.1
  },
  {
    "type": "medium_airport",
    "name": "Blackpool Airport",
    "gps_code": "EGNH",
    "freq": "119.950",
    "Lat": 53.771702,
    "Lon": -3.02861,
    "Ele": 10.4
  },
  {
    "type": "small_airport",
    "name": "Skegness (Ingoldmells) Aerodrome",
    "gps_code": "EGNI",
    "freq": "132.425",
    "Lat": 53.1716,
    "Lon": 0.329375,
    "Ele": 2.4
  },
  {
    "type": "medium_airport",
    "name": "Humberside Airport",
    "gps_code": "EGNJ",
    "freq": "119.130",
    "Lat": 53.576152,
    "Lon": -0.34954,
    "Ele": 36.9
  },
  {
    "type": "medium_airport",
    "name": "Barrow Walney Island Airport",
    "gps_code": "EGNL",
    "freq": "123.200",
    "Lat": 54.1286111,
    "Lon": -3.2675,
    "Ele": 52.7
  },
  {
    "type": "medium_airport",
    "name": "Leeds Bradford Airport",
    "gps_code": "EGNM",
    "freq": "123.380",
    "Lat": 53.865898,
    "Lon": -1.66057,
    "Ele": 207.6
  },
  {
    "type": "medium_airport",
    "name": "Warton Aerodrome",
    "gps_code": "EGNO",
    "freq": "129.525",
    "Lat": 53.745098,
    "Lon": -2.88306,
    "Ele": 16.8
  },
  {
    "type": "medium_airport",
    "name": "Hawarden Airport",
    "gps_code": "EGNR",
    "freq": "120.055",
    "Lat": 53.178101,
    "Lon": -2.97778,
    "Ele": 13.7
  },
  {
    "type": "medium_airport",
    "name": "Newcastle International Airport",
    "gps_code": "EGNT",
    "freq": "124.375",
    "Lat": 55.037958,
    "Lon": -1.689577,
    "Ele": 81.1
  },
  {
    "type": "small_airport",
    "name": "Full Sutton Airfield",
    "gps_code": "EGNU",
    "freq": "132.325",
    "Lat": 53.980598,
    "Lon": -0.864722,
    "Ele": 26.2
  },
  {
    "type": "medium_airport",
    "name": "Teesside International Airport",
    "gps_code": "EGNV",
    "freq": "132.375",
    "Lat": 54.509201,
    "Lon": -1.42941,
    "Ele": 36.6
  },
  {
    "type": "small_airport",
    "name": "Wickenby Aerodrome",
    "gps_code": "EGNW",
    "freq": "122.450",
    "Lat": 53.3167,
    "Lon": -0.349722,
    "Ele": 19.2
  },
  {
    "type": "medium_airport",
    "name": "East Midlands Airport",
    "gps_code": "EGNX",
    "freq": "134.175",
    "Lat": 52.8311,
    "Lon": -1.32806,
    "Ele": 93.3
  },
  {
    "type": "small_airport",
    "name": "Beverley/Linley Hill Airfield",
    "gps_code": "EGNY",
    "freq": "123.050",
    "Lat": 53.898384,
    "Lon": -0.36139,
    "Ele": 0.9
  },
  {
    "type": "small_airport",
    "name": "Tern Hill Airfield",
    "gps_code": "EGOE",
    "freq": "28.200",
    "Lat": 52.872775,
    "Lon": -2.532692,
    "Ele": 82.9
  },
  {
    "type": "medium_airport",
    "name": "RAF Spadeadam",
    "gps_code": "EGOM",
    "freq": "",
    "Lat": 55.0499992371,
    "Lon": -2.54999995232,
    "Ele": 324.9
  },
  {
    "type": "small_airport",
    "name": "RAF Mona",
    "gps_code": "EGOQ",
    "freq": "122.225",
    "Lat": 53.258598,
    "Lon": -4.37355,
    "Ele": 61.6
  },
  {
    "type": "medium_airport",
    "name": "RAF Shawbury",
    "gps_code": "EGOS",
    "freq": "126.500",
    "Lat": 52.798199,
    "Lon": -2.66804,
    "Ele": 75.9
  },
  {
    "type": "medium_airport",
    "name": "Anglesey Airport",
    "gps_code": "EGOV",
    "freq": "134.350",
    "Lat": 53.2481,
    "Lon": -4.53534,
    "Ele": 11.3
  },
  {
    "type": "small_airport",
    "name": "RAF Woodvale",
    "gps_code": "EGOW",
    "freq": "121.000",
    "Lat": 53.5816,
    "Lon": -3.05552,
    "Ele": 11.3
  },
  {
    "type": "medium_airport",
    "name": "Kirkwall Airport",
    "gps_code": "EGPA",
    "freq": "118.305",
    "Lat": 58.957801818847656,
    "Lon": -2.9049999713897705,
    "Ele": 15.2
  },
  {
    "type": "medium_airport",
    "name": "Sumburgh Airport",
    "gps_code": "EGPB",
    "freq": "131.300",
    "Lat": 59.878899,
    "Lon": -1.29556,
    "Ele": 6.1
  },
  {
    "type": "medium_airport",
    "name": "Wick John O'Groats Airport",
    "gps_code": "EGPC",
    "freq": "119.705",
    "Lat": 58.4589,
    "Lon": -3.09306,
    "Ele": 38.4
  },
  {
    "type": "medium_airport",
    "name": "Aberdeen International Airport",
    "gps_code": "EGPD",
    "freq": "119.055",
    "Lat": 57.2019,
    "Lon": -2.19778,
    "Ele": 65.5
  },
  {
    "type": "medium_airport",
    "name": "Inverness Airport",
    "gps_code": "EGPE",
    "freq": "122.605",
    "Lat": 57.54249954223633,
    "Lon": -4.047500133514404,
    "Ele": 9.4
  },
  {
    "type": "large_airport",
    "name": "Glasgow Airport",
    "gps_code": "EGPF",
    "freq": "120.350",
    "Lat": 55.871899,
    "Lon": -4.43306,
    "Ele": 7.9
  },
  {
    "type": "small_airport",
    "name": "Cumbernauld Airport",
    "gps_code": "EGPG",
    "freq": "120.600",
    "Lat": 55.974701,
    "Lon": -3.97556,
    "Ele": 106.7
  },
  {
    "type": "large_airport",
    "name": "Edinburgh Airport",
    "gps_code": "EGPH",
    "freq": "121.200",
    "Lat": 55.950145,
    "Lon": -3.372288,
    "Ele": 41.1
  },
  {
    "type": "medium_airport",
    "name": "Islay Airport",
    "gps_code": "EGPI",
    "freq": "123.155",
    "Lat": 55.682708,
    "Lon": -6.257525,
    "Ele": 17.1
  },
  {
    "type": "small_airport",
    "name": "Fife Airport",
    "gps_code": "EGPJ",
    "freq": "130.455",
    "Lat": 56.1833,
    "Lon": -3.22028,
    "Ele": 121.6
  },
  {
    "type": "medium_airport",
    "name": "Glasgow Prestwick Airport",
    "gps_code": "EGPK",
    "freq": "120.550",
    "Lat": 55.502003,
    "Lon": -4.587019,
    "Ele": 19.8
  },
  {
    "type": "medium_airport",
    "name": "Benbecula Airport",
    "gps_code": "EGPL",
    "freq": "119.205",
    "Lat": 57.48109817504883,
    "Lon": -7.362780094146728,
    "Ele": 5.8
  },
  {
    "type": "medium_airport",
    "name": "Dundee Airport",
    "gps_code": "EGPN",
    "freq": "122.905",
    "Lat": 56.45249938964844,
    "Lon": -3.025830030441284,
    "Ele": 5.2
  },
  {
    "type": "medium_airport",
    "name": "Stornoway Airport",
    "gps_code": "EGPO",
    "freq": "119.480",
    "Lat": 58.215599,
    "Lon": -6.33111,
    "Ele": 7.9
  },
  {
    "type": "medium_airport",
    "name": "Barra Airport",
    "gps_code": "EGPR",
    "freq": "118.075",
    "Lat": 57.0228,
    "Lon": -7.44306,
    "Ele": 1.5
  },
  {
    "type": "small_airport",
    "name": "Longside Airfield",
    "gps_code": "EGPS",
    "freq": "118.280",
    "Lat": 57.516836,
    "Lon": -1.864586,
    "Ele": 45.7
  },
  {
    "type": "small_airport",
    "name": "Perth/Scone Airport",
    "gps_code": "EGPT",
    "freq": "121.080",
    "Lat": 56.439201,
    "Lon": -3.37222,
    "Ele": 121.0
  },
  {
    "type": "medium_airport",
    "name": "Tiree Airport",
    "gps_code": "EGPU",
    "freq": "122.705",
    "Lat": 56.49919891357422,
    "Lon": -6.869170188903809,
    "Ele": 11.6
  },
  {
    "type": "small_airport",
    "name": "Unst Airfield",
    "gps_code": "EGPW",
    "freq": "130.350",
    "Lat": 60.7472,
    "Lon": -0.85385,
    "Ele": 18.9
  },
  {
    "type": "medium_airport",
    "name": "Leuchars Station Airfield",
    "gps_code": "EGQL",
    "freq": "123.300",
    "Lat": 56.37398,
    "Lon": -2.868862,
    "Ele": 11.6
  },
  {
    "type": "medium_airport",
    "name": "RAF Lossiemouth",
    "gps_code": "EGQS",
    "freq": "123.300",
    "Lat": 57.7052001953125,
    "Lon": -3.339169979095459,
    "Ele": 12.8
  },
  {
    "type": "small_airport",
    "name": "Shipdham Airfield",
    "gps_code": "EGSA",
    "freq": "",
    "Lat": 52.629398,
    "Lon": 0.928056,
    "Ele": 64.0
  },
  {
    "type": "medium_airport",
    "name": "Cambridge City Airport",
    "gps_code": "EGSC",
    "freq": "123.600",
    "Lat": 52.205002,
    "Lon": 0.175,
    "Ele": 14.3
  },
  {
    "type": "small_airport",
    "name": "Great Yarmouth - North Denes Airport",
    "gps_code": "EGSD",
    "freq": "123.400",
    "Lat": 52.634712,
    "Lon": 1.722264,
    "Ele": 1.8
  },
  {
    "type": "small_airport",
    "name": "Peterborough Business Airport",
    "gps_code": "EGSF",
    "freq": "129.725",
    "Lat": 52.468102,
    "Lon": -0.251111,
    "Ele": 7.9
  },
  {
    "type": "small_airport",
    "name": "Stapleford Aerodrome",
    "gps_code": "EGSG",
    "freq": "122.800",
    "Lat": 51.6525,
    "Lon": 0.155833,
    "Ele": 55.8
  },
  {
    "type": "medium_airport",
    "name": "Norwich Airport",
    "gps_code": "EGSH",
    "freq": "119.355",
    "Lat": 52.6758,
    "Lon": 1.28278,
    "Ele": 35.7
  },
  {
    "type": "small_airport",
    "name": "Marshland Airfield",
    "gps_code": "EGSI",
    "freq": "",
    "Lat": 52.643611,
    "Lon": 0.295,
    "Ele": -1.8
  },
  {
    "type": "small_airport",
    "name": "Seething Airfield",
    "gps_code": "EGSJ",
    "freq": "118.435",
    "Lat": 52.510997,
    "Lon": 1.416864,
    "Ele": 39.6
  },
  {
    "type": "small_airport",
    "name": "Andrewsfield Aerodrome",
    "gps_code": "EGSL",
    "freq": "130.555",
    "Lat": 51.895,
    "Lon": 0.449167,
    "Ele": 87.2
  },
  {
    "type": "small_airport",
    "name": "Beccles Airfield",
    "gps_code": "EGSM",
    "freq": "120.375",
    "Lat": 52.435299,
    "Lon": 1.61833,
    "Ele": 24.4
  },
  {
    "type": "small_airport",
    "name": "Crowfield Airfield",
    "gps_code": "EGSO",
    "freq": "122.775",
    "Lat": 52.17251,
    "Lon": 1.110563,
    "Ele": 61.3
  },
  {
    "type": "small_airport",
    "name": "Peterborough/Sibson Airfield",
    "gps_code": "EGSP",
    "freq": "120.325",
    "Lat": 52.5571,
    "Lon": -0.386982,
    "Ele": 39.6
  },
  {
    "type": "small_airport",
    "name": "Clacton Airfield",
    "gps_code": "EGSQ",
    "freq": "118.150",
    "Lat": 51.785,
    "Lon": 1.13,
    "Ele": 11.3
  },
  {
    "type": "small_airport",
    "name": "Earls Colne Airfield",
    "gps_code": "EGSR",
    "freq": "122.425",
    "Lat": 51.914398,
    "Lon": 0.6825,
    "Ele": 68.9
  },
  {
    "type": "large_airport",
    "name": "London Stansted Airport",
    "gps_code": "EGSS",
    "freq": "120.625",
    "Lat": 51.884998,
    "Lon": 0.235,
    "Ele": 106.1
  },
  {
    "type": "small_airport",
    "name": "Elmsett Airfield",
    "gps_code": "EGST",
    "freq": "130.900",
    "Lat": 52.075454,
    "Lon": 0.977654,
    "Ele": 75.0
  },
  {
    "type": "small_airport",
    "name": "Duxford Aerodrome",
    "gps_code": "EGSU",
    "freq": "122.075",
    "Lat": 52.090801,
    "Lon": 0.131944,
    "Ele": 38.1
  },
  {
    "type": "small_airport",
    "name": "Old Buckenham Airfield",
    "gps_code": "EGSV",
    "freq": "124.405",
    "Lat": 52.497501,
    "Lon": 1.05194,
    "Ele": 59.1
  },
  {
    "type": "small_airport",
    "name": "Newmarket Heath Airfield",
    "gps_code": "EGSW",
    "freq": "",
    "Lat": 52.235147,
    "Lon": 0.350643,
    "Ele": 30.5
  },
  {
    "type": "small_airport",
    "name": "North Weald Airfield",
    "gps_code": "EGSX",
    "freq": "123.525",
    "Lat": 51.721699,
    "Lon": 0.154167,
    "Ele": 97.8
  },
  {
    "type": "small_airport",
    "name": "Wycombe Air Park",
    "gps_code": "EGTB",
    "freq": "121.770",
    "Lat": 51.61177,
    "Lon": -0.808316,
    "Ele": 157.0
  },
  {
    "type": "medium_airport",
    "name": "Cranfield Airport",
    "gps_code": "EGTC",
    "freq": "122.850",
    "Lat": 52.072201,
    "Lon": -0.616667,
    "Ele": 109.7
  },
  {
    "type": "small_airport",
    "name": "Dunsfold Aerodrome",
    "gps_code": "EGTD",
    "freq": "119.100",
    "Lat": 51.117199,
    "Lon": -0.535833,
    "Ele": 52.4
  },
  {
    "type": "medium_airport",
    "name": "Exeter International Airport",
    "gps_code": "EGTE",
    "freq": "128.975",
    "Lat": 50.734261,
    "Lon": -3.413984,
    "Ele": 31.1
  },
  {
    "type": "small_airport",
    "name": "Fairoaks Airport",
    "gps_code": "EGTF",
    "freq": "123.430",
    "Lat": 51.348099,
    "Lon": -0.558889,
    "Ele": 24.4
  },
  {
    "type": "small_airport",
    "name": "Old Warden Airfield",
    "gps_code": "EGTH",
    "freq": "",
    "Lat": 52.084591,
    "Lon": -0.3201,
    "Ele": 33.5
  },
  {
    "type": "medium_airport",
    "name": "London Oxford Airport",
    "gps_code": "EGTK",
    "freq": "125.325",
    "Lat": 51.836899,
    "Lon": -1.32,
    "Ele": 82.3
  },
  {
    "type": "small_airport",
    "name": "Rochester Airport",
    "gps_code": "EGTO",
    "freq": "122.255",
    "Lat": 51.351898,
    "Lon": 0.503333,
    "Ele": 132.9
  },
  {
    "type": "small_airport",
    "name": "Perranporth Airfield",
    "gps_code": "EGTP",
    "freq": "119.750",
    "Lat": 50.331699,
    "Lon": -5.1775,
    "Ele": 100.6
  },
  {
    "type": "small_airport",
    "name": "Elstree Airfield",
    "gps_code": "EGTR",
    "freq": "122.400",
    "Lat": 51.6558,
    "Lon": -0.325833,
    "Ele": 101.2
  },
  {
    "type": "small_airport",
    "name": "Dunkeswell Airfield",
    "gps_code": "EGTU",
    "freq": "123.475",
    "Lat": 50.860956,
    "Lon": -3.233929,
    "Ele": 255.7
  },
  {
    "type": "small_airport",
    "name": "Oaksey Park Airfield",
    "gps_code": "EGTW",
    "freq": "132.230",
    "Lat": 51.632198,
    "Lon": -2.01472,
    "Ele": 76.2
  },
  {
    "type": "medium_airport",
    "name": "RAF Benson",
    "gps_code": "EGUB",
    "freq": "376.650",
    "Lat": 51.614366,
    "Lon": -1.095991,
    "Ele": 68.9
  },
  {
    "type": "small_airport",
    "name": "RAF Abingdon",
    "gps_code": "EGUD",
    "freq": "121.100",
    "Lat": 51.690614,
    "Lon": -1.316568,
    "Ele": 78.9
  },
  {
    "type": "medium_airport",
    "name": "RAF Lakenheath",
    "gps_code": "EGUL",
    "freq": "136.500",
    "Lat": 52.40954,
    "Lon": 0.561161,
    "Ele": 9.8
  },
  {
    "type": "medium_airport",
    "name": "RAF Mildenhall",
    "gps_code": "EGUN",
    "freq": "136.500",
    "Lat": 52.3619,
    "Lon": 0.486406,
    "Ele": 10.1
  },
  {
    "type": "medium_airport",
    "name": "Wattisham Airfield",
    "gps_code": "EGUW",
    "freq": "125.800",
    "Lat": 52.127451,
    "Lon": 0.956189,
    "Ele": 86.6
  },
  {
    "type": "medium_airport",
    "name": "RAF Fairford",
    "gps_code": "EGVA",
    "freq": "119.000",
    "Lat": 51.683568,
    "Lon": -1.789172,
    "Ele": 87.2
  },
  {
    "type": "small_airport",
    "name": "RAF Little Rissington",
    "gps_code": "EGVL",
    "freq": "",
    "Lat": 51.866475,
    "Lon": -1.694984,
    "Ele": 222.5
  },
  {
    "type": "medium_airport",
    "name": "RAF Brize Norton",
    "gps_code": "EGVN",
    "freq": "127.250",
    "Lat": 51.75,
    "Lon": -1.58362,
    "Ele": 87.8
  },
  {
    "type": "medium_airport",
    "name": "RAF Odiham",
    "gps_code": "EGVO",
    "freq": "131.300",
    "Lat": 51.2341,
    "Lon": -0.942825,
    "Ele": 123.4
  },
  {
    "type": "small_airport",
    "name": "Middle Wallop Airfield",
    "gps_code": "EGVP",
    "freq": "280.620",
    "Lat": 51.1394,
    "Lon": -1.56861,
    "Ele": 90.5
  },
  {
    "type": "medium_airport",
    "name": "RAF Cosford",
    "gps_code": "EGWC",
    "freq": "135.875",
    "Lat": 52.639999,
    "Lon": -2.30558,
    "Ele": 82.9
  },
  {
    "type": "small_airport",
    "name": "RAF Henlow",
    "gps_code": "EGWE",
    "freq": "121.100",
    "Lat": 52.0182,
    "Lon": -0.30385,
    "Ele": 62.8
  },
  {
    "type": "small_airport",
    "name": "RAF Halton",
    "gps_code": "EGWN",
    "freq": "130.425",
    "Lat": 51.790699,
    "Lon": -0.737972,
    "Ele": 112.8
  },
  {
    "type": "medium_airport",
    "name": "RAF Northolt",
    "gps_code": "EGWU",
    "freq": "126.450",
    "Lat": 51.553001,
    "Lon": -0.418167,
    "Ele": 37.8
  },
  {
    "type": "medium_airport",
    "name": "RAF Coningsby",
    "gps_code": "EGXC",
    "freq": "120.800",
    "Lat": 53.092999,
    "Lon": -0.166014,
    "Ele": 7.6
  },
  {
    "type": "medium_airport",
    "name": "RAF Leeming",
    "gps_code": "EGXE",
    "freq": "123.300",
    "Lat": 54.297191,
    "Lon": -1.538944,
    "Ele": 40.2
  },
  {
    "type": "medium_airport",
    "name": "Leeds East Airport",
    "gps_code": "EGXG",
    "freq": "126.500",
    "Lat": 53.834747,
    "Lon": -1.194678,
    "Ele": 8.8
  },
  {
    "type": "medium_airport",
    "name": "RAF Honington",
    "gps_code": "EGXH",
    "freq": "123.300",
    "Lat": 52.342602,
    "Lon": 0.772939,
    "Ele": 53.0
  },
  {
    "type": "medium_airport",
    "name": "RAF Wittering",
    "gps_code": "EGXT",
    "freq": "130.200",
    "Lat": 52.612598,
    "Lon": -0.476453,
    "Ele": 83.2
  },
  {
    "type": "medium_airport",
    "name": "RAF Waddington",
    "gps_code": "EGXW",
    "freq": "250.850",
    "Lat": 53.166199,
    "Lon": -0.523811,
    "Ele": 70.4
  },
  {
    "type": "small_airport",
    "name": "RAF Syerston",
    "gps_code": "EGXY",
    "freq": "125.425",
    "Lat": 53.02280044555664,
    "Lon": -0.9111109972000122,
    "Ele": 69.5
  },
  {
    "type": "medium_airport",
    "name": "RAF Topcliffe",
    "gps_code": "EGXZ",
    "freq": "125.000",
    "Lat": 54.204116,
    "Lon": -1.380265,
    "Ele": 28.0
  },
  {
    "type": "medium_airport",
    "name": "RAF Cranwell",
    "gps_code": "EGYD",
    "freq": "119.375",
    "Lat": 53.0303,
    "Lon": -0.483242,
    "Ele": 66.4
  },
  {
    "type": "medium_airport",
    "name": "RAF Barkston Heath",
    "gps_code": "EGYE",
    "freq": "28.077",
    "Lat": 52.960616,
    "Lon": -0.559428,
    "Ele": 111.9
  },
  {
    "type": "medium_airport",
    "name": "RAF Marham",
    "gps_code": "EGYM",
    "freq": "124.150",
    "Lat": 52.648395,
    "Lon": 0.550692,
    "Ele": 22.9
  },
  {
    "type": "small_airport",
    "name": "Feshiebridge Glider Field",
    "gps_code": "EGZL",
    "freq": "",
    "Lat": 57.103667,
    "Lon": -3.891667,
    "Ele": 266.1
  },
  {
    "type": "small_airport",
    "name": "Fetlar Airstrip",
    "gps_code": "FEA",
    "freq": "",
    "Lat": 60.603333,
    "Lon": -0.872778,
    "Ele": 80.2
  },
  {
    "type": "small_airport",
    "name": "Fishburn Airfield",
    "gps_code": "GB-0002",
    "freq": "118.280",
    "Lat": 54.686798,
    "Lon": -1.45831,
    "Ele": 114.9
  },
  {
    "type": "small_airport",
    "name": "Kirkbride Airfield",
    "gps_code": "GB-0005",
    "freq": "",
    "Lat": 54.882099,
    "Lon": -3.204731,
    "Ele": 4.9
  },
  {
    "type": "small_airport",
    "name": "Draycott Farm Airfield",
    "gps_code": "GB-0006",
    "freq": "",
    "Lat": 51.493401,
    "Lon": -1.74382,
    "Ele": 151.8
  },
  {
    "type": "small_airport",
    "name": "Enstone Aerodrome",
    "gps_code": "GB-0007",
    "freq": "129.875",
    "Lat": 51.928167,
    "Lon": -1.4285,
    "Ele": 167.6
  },
  {
    "type": "small_airport",
    "name": "Causeway Airfield",
    "gps_code": "GB-0008",
    "freq": "135.475",
    "Lat": 55.058817,
    "Lon": -6.58439,
    "Ele": 10.1
  },
  {
    "type": "small_airport",
    "name": "Aboyne Airfield",
    "gps_code": "GB-0009",
    "freq": "",
    "Lat": 57.075003,
    "Lon": -2.839832,
    "Ele": 141.1
  },
  {
    "type": "small_airport",
    "name": "Spanhoe Airfield",
    "gps_code": "GB-0010",
    "freq": "",
    "Lat": 52.558264,
    "Lon": -0.620132,
    "Ele": 107.9
  },
  {
    "type": "small_airport",
    "name": "Aston Down Airfield",
    "gps_code": "GB-0011",
    "freq": "",
    "Lat": 51.708056,
    "Lon": -2.130556,
    "Ele": 182.3
  },
  {
    "type": "small_airport",
    "name": "Bidford Airfield",
    "gps_code": "GB-0013",
    "freq": "",
    "Lat": 52.137778,
    "Lon": -1.850278,
    "Ele": 39.9
  },
  {
    "type": "small_airport",
    "name": "Brent Tor Glider Field",
    "gps_code": "GB-0015",
    "freq": "",
    "Lat": 50.5925,
    "Lon": -4.145278,
    "Ele": 259.4
  },
  {
    "type": "small_airport",
    "name": "Bryngwyn Bach Airfield",
    "gps_code": "GB-0016",
    "freq": "",
    "Lat": 53.270314,
    "Lon": -3.355823,
    "Ele": 198.1
  },
  {
    "type": "small_airport",
    "name": "Burn Airfield",
    "gps_code": "GB-0017",
    "freq": "",
    "Lat": 53.747511,
    "Lon": -1.085806,
    "Ele": 7.6
  },
  {
    "type": "small_airport",
    "name": "Camphill Airfield",
    "gps_code": "GB-0018",
    "freq": "",
    "Lat": 53.305,
    "Lon": -1.731389,
    "Ele": 396.2
  },
  {
    "type": "small_airport",
    "name": "Bristol and Gloucestershire Gliding Club",
    "gps_code": "GB-0022",
    "freq": "",
    "Lat": 51.713682,
    "Lon": -2.283697,
    "Ele": 0.0
  },
  {
    "type": "small_airport",
    "name": "Shenstone Hall Farm Airstrip",
    "gps_code": "GB-0023",
    "freq": "",
    "Lat": 52.639565,
    "Lon": -1.821718,
    "Ele": 93.0
  },
  {
    "type": "small_airport",
    "name": "Croft Farm Airfield",
    "gps_code": "GB-0024",
    "freq": "",
    "Lat": 52.085667,
    "Lon": -2.135722,
    "Ele": 20.1
  },
  {
    "type": "small_airport",
    "name": "Dorset Gliding Club (Eyres Field)",
    "gps_code": "GB-0025",
    "freq": "",
    "Lat": 50.708933,
    "Lon": -2.219496,
    "Ele": 30.5
  },
  {
    "type": "small_airport",
    "name": "Newton Peveril Airfield",
    "gps_code": "GB-0026",
    "freq": "135.475",
    "Lat": 50.794959,
    "Lon": -2.096689,
    "Ele": 36.6
  },
  {
    "type": "small_airport",
    "name": "Stancombe Farm Airstrip (Private)",
    "gps_code": "GB-0027",
    "freq": "",
    "Lat": 50.72453,
    "Lon": -2.634466,
    "Ele": 217.9
  },
  {
    "type": "small_airport",
    "name": "Melbury Airstrip",
    "gps_code": "GB-0029",
    "freq": "",
    "Lat": 50.879714,
    "Lon": -2.617745,
    "Ele": 85.0
  },
  {
    "type": "small_airport",
    "name": "Langar Airfield",
    "gps_code": "GB-0030",
    "freq": "",
    "Lat": 52.89593,
    "Lon": -0.90101,
    "Ele": 36.9
  },
  {
    "type": "small_airport",
    "name": "Middle Pymore Farm Airstrip (Private)",
    "gps_code": "GB-0031",
    "freq": "",
    "Lat": 50.751282,
    "Lon": -2.759542,
    "Ele": 43.9
  },
  {
    "type": "small_airport",
    "name": "Bath Wilts & North Dorset Gliding Club",
    "gps_code": "GB-0032",
    "freq": "",
    "Lat": 51.128899,
    "Lon": -2.246017,
    "Ele": 210.9
  },
  {
    "type": "small_airport",
    "name": "Heywood Farm Airstrip",
    "gps_code": "GB-0033",
    "freq": "",
    "Lat": 51.003954,
    "Lon": -3.240817,
    "Ele": 66.1
  },
  {
    "type": "small_airport",
    "name": "Cottage Farm Airstrip",
    "gps_code": "GB-0034",
    "freq": "",
    "Lat": 52.669634,
    "Lon": -1.523465,
    "Ele": 0.0
  },
  {
    "type": "small_airport",
    "name": "Old Park Farm Airstrip",
    "gps_code": "GB-0035",
    "freq": "",
    "Lat": 51.546906,
    "Lon": -3.717291,
    "Ele": 46.9
  },
  {
    "type": "small_airport",
    "name": "Horse Leys Farm Airstrip",
    "gps_code": "GB-0036",
    "freq": "",
    "Lat": 52.785362,
    "Lon": -1.096752,
    "Ele": 110.9
  },
  {
    "type": "small_airport",
    "name": "White Ox Mead Airstrip",
    "gps_code": "GB-0037",
    "freq": "",
    "Lat": 51.319857,
    "Lon": -2.400939,
    "Ele": 167.0
  },
  {
    "type": "small_airport",
    "name": "Eshott Airfield",
    "gps_code": "GB-0038",
    "freq": "122.850",
    "Lat": 55.280484,
    "Lon": -1.714897,
    "Ele": 60.0
  },
  {
    "type": "small_airport",
    "name": "Lower Upham Airfield",
    "gps_code": "GB-0042",
    "freq": "",
    "Lat": 50.972508,
    "Lon": -1.248493,
    "Ele": 61.9
  },
  {
    "type": "small_airport",
    "name": "Lower Upham Farm Airfield",
    "gps_code": "GB-0044",
    "freq": "135.475",
    "Lat": 51.496695,
    "Lon": -1.712708,
    "Ele": 137.2
  },
  {
    "type": "small_airport",
    "name": "Clench Common Airfield",
    "gps_code": "GB-0045",
    "freq": "129.825",
    "Lat": 51.390238,
    "Lon": -1.733427,
    "Ele": 189.9
  },
  {
    "type": "small_airport",
    "name": "Keyston Airfield",
    "gps_code": "GB-0046",
    "freq": "135.475",
    "Lat": 52.367395,
    "Lon": -0.478239,
    "Ele": 70.1
  },
  {
    "type": "small_airport",
    "name": "Northrepps Aerodrome",
    "gps_code": "GB-0047",
    "freq": "129.825",
    "Lat": 52.893807,
    "Lon": 1.32106,
    "Ele": 55.2
  },
  {
    "type": "small_airport",
    "name": "Easter Airfield",
    "gps_code": "GB-0048",
    "freq": "122.750",
    "Lat": 57.753343,
    "Lon": -3.94279,
    "Ele": 6.7
  },
  {
    "type": "small_airport",
    "name": "Bowerswaine Farm Airfield",
    "gps_code": "GB-0049",
    "freq": "135.475",
    "Lat": 50.889923,
    "Lon": -1.985821,
    "Ele": 41.1
  },
  {
    "type": "small_airport",
    "name": "Wing Farm Airfield",
    "gps_code": "GB-0050",
    "freq": "135.475",
    "Lat": 51.163355,
    "Lon": -2.208607,
    "Ele": 132.6
  },
  {
    "type": "small_airport",
    "name": "Colemore Farm Airfield",
    "gps_code": "GB-0051",
    "freq": "135.475",
    "Lat": 51.060926,
    "Lon": -1.010742,
    "Ele": 185.9
  },
  {
    "type": "small_airport",
    "name": "Eggesford Airfield",
    "gps_code": "GB-0052",
    "freq": "123.500",
    "Lat": 50.866839,
    "Lon": -3.86312,
    "Ele": 175.6
  },
  {
    "type": "small_airport",
    "name": "Lower Manor Farm Airstrip",
    "gps_code": "GB-0053",
    "freq": "",
    "Lat": 50.627441,
    "Lon": -2.51853,
    "Ele": 32.0
  },
  {
    "type": "small_airport",
    "name": "Yatesbury Airfield",
    "gps_code": "GB-0054",
    "freq": "",
    "Lat": 51.43182,
    "Lon": -1.910401,
    "Ele": 160.0
  },
  {
    "type": "small_airport",
    "name": "Milton Airfield",
    "gps_code": "GB-0055",
    "freq": "",
    "Lat": 52.584698,
    "Lon": -0.329528,
    "Ele": 45.7
  },
  {
    "type": "small_airport",
    "name": "Roche Barton Farm Airstrip",
    "gps_code": "GB-0056",
    "freq": "",
    "Lat": 50.419951,
    "Lon": -4.805554,
    "Ele": 133.8
  },
  {
    "type": "small_airport",
    "name": "Walton Wood Airfield",
    "gps_code": "GB-0057",
    "freq": "",
    "Lat": 53.629285,
    "Lon": -1.26554,
    "Ele": 54.9
  },
  {
    "type": "small_airport",
    "name": "Boston Aerodrome",
    "gps_code": "GB-0058",
    "freq": "135.475",
    "Lat": 52.974601,
    "Lon": -0.071828,
    "Ele": 3.0
  },
  {
    "type": "small_airport",
    "name": "Steventon Private Airstrip",
    "gps_code": "GB-0059",
    "freq": "",
    "Lat": 51.620986,
    "Lon": -1.344431,
    "Ele": 0.0
  },
  {
    "type": "small_airport",
    "name": "Porthtowan Airfield",
    "gps_code": "GB-0060",
    "freq": "",
    "Lat": 50.285065,
    "Lon": -5.228403,
    "Ele": 103.9
  },
  {
    "type": "small_airport",
    "name": "Branscombe Airfield",
    "gps_code": "GB-0062",
    "freq": "135.475",
    "Lat": 50.697839,
    "Lon": -3.15566,
    "Ele": 152.4
  },
  {
    "type": "small_airport",
    "name": "Farway Common Airfield",
    "gps_code": "GB-0063",
    "freq": "135.475",
    "Lat": 50.735827,
    "Lon": -3.179173,
    "Ele": 235.0
  },
  {
    "type": "small_airport",
    "name": "Ashcroft Airfield",
    "gps_code": "GB-0064",
    "freq": "122.525",
    "Lat": 53.16451,
    "Lon": -2.572222,
    "Ele": 45.7
  },
  {
    "type": "small_airport",
    "name": "Audley End Airfield",
    "gps_code": "GB-0065",
    "freq": "135.475",
    "Lat": 52.007042,
    "Lon": 0.224104,
    "Ele": 86.3
  },
  {
    "type": "small_airport",
    "name": "Eddsfield Airfield",
    "gps_code": "GB-0066",
    "freq": "",
    "Lat": 54.111252,
    "Lon": -0.461929,
    "Ele": 0.0
  },
  {
    "type": "small_airport",
    "name": "Gigha Airfield",
    "gps_code": "GB-0068",
    "freq": "135.475",
    "Lat": 55.655171,
    "Lon": -5.755033,
    "Ele": 10.7
  },
  {
    "type": "small_airport",
    "name": "Egerton Airfield",
    "gps_code": "GB-0069",
    "freq": "",
    "Lat": 51.188302,
    "Lon": 0.684844,
    "Ele": 45.7
  },
  {
    "type": "small_airport",
    "name": "High Easter Airfield",
    "gps_code": "GB-0071",
    "freq": "",
    "Lat": 51.806235,
    "Lon": 0.341105,
    "Ele": 70.1
  },
  {
    "type": "small_airport",
    "name": "Hibaldstow Airfield",
    "gps_code": "GB-0072",
    "freq": "",
    "Lat": 53.495814,
    "Lon": -0.516922,
    "Ele": 9.1
  },
  {
    "type": "small_airport",
    "name": "Hinton-in-the-Hedges Airfield",
    "gps_code": "GB-0073",
    "freq": "119.450",
    "Lat": 52.028717,
    "Lon": -1.207157,
    "Ele": 153.9
  },
  {
    "type": "small_airport",
    "name": "Elvington Airfield",
    "gps_code": "GB-0075",
    "freq": "119.625",
    "Lat": 53.922976,
    "Lon": -0.993347,
    "Ele": 14.6
  },
  {
    "type": "small_airport",
    "name": "Lane Farm Airstrip",
    "gps_code": "GB-0076",
    "freq": "",
    "Lat": 52.115802,
    "Lon": -3.196275,
    "Ele": 253.9
  },
  {
    "type": "small_airport",
    "name": "Finmere Aerodrome",
    "gps_code": "GB-0077",
    "freq": "",
    "Lat": 51.985282,
    "Lon": -1.056383,
    "Ele": 121.9
  },
  {
    "type": "small_airport",
    "name": "Great Massingham Airfield",
    "gps_code": "GB-0078",
    "freq": "",
    "Lat": 52.781793,
    "Lon": 0.679607,
    "Ele": 84.1
  },
  {
    "type": "small_airport",
    "name": "Manor Farm Airstrip",
    "gps_code": "GB-0079",
    "freq": "",
    "Lat": 51.307821,
    "Lon": -1.673527,
    "Ele": 0.0
  },
  {
    "type": "small_airport",
    "name": "Staindrop Private Airstrip",
    "gps_code": "GB-0093",
    "freq": "",
    "Lat": 54.57053,
    "Lon": -1.792738,
    "Ele": 104.5
  },
  {
    "type": "small_airport",
    "name": "Bolt Head Airfield",
    "gps_code": "GB-0127",
    "freq": "",
    "Lat": 50.22383,
    "Lon": -3.801637,
    "Ele": 131.1
  },
  {
    "type": "small_airport",
    "name": "Brooklands Aerodrome",
    "gps_code": "GB-0140",
    "freq": "",
    "Lat": 51.348595,
    "Lon": -0.470326,
    "Ele": 16.5
  },
  {
    "type": "small_airport",
    "name": "Knockrome Airstrip",
    "gps_code": "GB-0150",
    "freq": "",
    "Lat": 55.874329,
    "Lon": -5.908993,
    "Ele": 24.1
  },
  {
    "type": "small_airport",
    "name": "Oxenhope Airfield",
    "gps_code": "GB-0151",
    "freq": "",
    "Lat": 53.813771,
    "Lon": -1.933598,
    "Ele": 329.2
  },
  {
    "type": "small_airport",
    "name": "Wigtown Airfield",
    "gps_code": "GB-0153",
    "freq": "",
    "Lat": 54.8527,
    "Lon": -4.442,
    "Ele": 7.9
  },
  {
    "type": "small_airport",
    "name": "Glassonby Airfield",
    "gps_code": "GB-0166",
    "freq": "",
    "Lat": 54.737994,
    "Lon": -2.651861,
    "Ele": 182.9
  },
  {
    "type": "small_airport",
    "name": "Berrier Airstrip",
    "gps_code": "GB-0168",
    "freq": "",
    "Lat": 54.656504,
    "Lon": -2.93365,
    "Ele": 316.1
  },
  {
    "type": "small_airport",
    "name": "Bedlands Gate Airfield",
    "gps_code": "GB-0169",
    "freq": "",
    "Lat": 54.570822,
    "Lon": -2.671125,
    "Ele": 265.5
  },
  {
    "type": "small_airport",
    "name": "Channel Gliding Club",
    "gps_code": "GB-0175",
    "freq": "",
    "Lat": 51.175729,
    "Lon": 1.277146,
    "Ele": 0.0
  },
  {
    "type": "small_airport",
    "name": "Jackrells Farm Airstrip",
    "gps_code": "GB-0176",
    "freq": "",
    "Lat": 51.032542,
    "Lon": -0.330362,
    "Ele": 0.0
  },
  {
    "type": "small_airport",
    "name": "Great Oakley Airfield",
    "gps_code": "GB-0177",
    "freq": "123.205",
    "Lat": 51.912343,
    "Lon": 1.182142,
    "Ele": 22.9
  },
  {
    "type": "small_airport",
    "name": "Wombleton Airfield",
    "gps_code": "GB-0179",
    "freq": "",
    "Lat": 54.231147,
    "Lon": -0.974655,
    "Ele": 38.1
  },
  {
    "type": "small_airport",
    "name": "Strathaven Airfield",
    "gps_code": "GB-0180",
    "freq": "135.475",
    "Lat": 55.679968,
    "Lon": -4.113381,
    "Ele": 258.2
  },
  {
    "type": "small_airport",
    "name": "East Fortune Airfield",
    "gps_code": "GB-0181",
    "freq": "",
    "Lat": 56.000849,
    "Lon": -2.735324,
    "Ele": 37.2
  },
  {
    "type": "small_airport",
    "name": "East Kirkby Airfield",
    "gps_code": "GB-0182",
    "freq": "",
    "Lat": 53.13758,
    "Lon": 0.002098,
    "Ele": 12.2
  },
  {
    "type": "small_airport",
    "name": "Willow Farm Airstrip",
    "gps_code": "GB-0183",
    "freq": "",
    "Lat": 53.421725,
    "Lon": -0.910137,
    "Ele": 6.1
  },
  {
    "type": "small_airport",
    "name": "Weybourne Airstrip",
    "gps_code": "GB-0184",
    "freq": "",
    "Lat": 52.947824,
    "Lon": 1.1232,
    "Ele": 0.0
  },
  {
    "type": "small_airport",
    "name": "Wadswick Farm Airstrip",
    "gps_code": "GB-0185",
    "freq": "120.075",
    "Lat": 51.411085,
    "Lon": -2.220385,
    "Ele": 137.2
  },
  {
    "type": "small_airport",
    "name": "Bellarena Airfield",
    "gps_code": "GB-0186",
    "freq": "",
    "Lat": 55.139413,
    "Lon": -6.969049,
    "Ele": 4.6
  },
  {
    "type": "small_airport",
    "name": "Black Spring Farm Airstrip",
    "gps_code": "GB-0188",
    "freq": "",
    "Lat": 52.780593,
    "Lon": -0.527873,
    "Ele": 92.0
  },
  {
    "type": "small_airport",
    "name": "Caunton Airfield",
    "gps_code": "GB-0189",
    "freq": "",
    "Lat": 53.118159,
    "Lon": -0.893483,
    "Ele": 49.1
  },
  {
    "type": "small_airport",
    "name": "Cuckoo Tye Farm Airstrip",
    "gps_code": "GB-0190",
    "freq": "",
    "Lat": 52.068223,
    "Lon": 0.736201,
    "Ele": 68.0
  },
  {
    "type": "small_airport",
    "name": "Cruglas Synod Inn Airstrip",
    "gps_code": "GB-0191",
    "freq": "",
    "Lat": 52.129609,
    "Lon": -4.366433,
    "Ele": 288.0
  },
  {
    "type": "small_airport",
    "name": "Ditton Priors Airstrip",
    "gps_code": "GB-0192",
    "freq": "",
    "Lat": 52.503434,
    "Lon": -2.562513,
    "Ele": 210.3
  },
  {
    "type": "small_airport",
    "name": "East Winch Airstrip",
    "gps_code": "GB-0194",
    "freq": "",
    "Lat": 52.72397,
    "Lon": 0.524011,
    "Ele": 17.1
  },
  {
    "type": "small_airport",
    "name": "Easton Maudit Airstrip",
    "gps_code": "GB-0195",
    "freq": "",
    "Lat": 52.213547,
    "Lon": -0.70149,
    "Ele": 89.0
  },
  {
    "type": "small_airport",
    "name": "Midland Glider Club",
    "gps_code": "GB-0196",
    "freq": "",
    "Lat": 52.514838,
    "Lon": -2.878761,
    "Ele": 445.0
  },
  {
    "type": "small_airport",
    "name": "Park Farm Airstrip",
    "gps_code": "GB-0197",
    "freq": "",
    "Lat": 51.88228,
    "Lon": -0.607189,
    "Ele": 92.0
  },
  {
    "type": "small_airport",
    "name": "Priory Farm Airstrip",
    "gps_code": "GB-0198",
    "freq": "129.825",
    "Lat": 52.452504,
    "Lon": 1.130862,
    "Ele": 56.7
  },
  {
    "type": "small_airport",
    "name": "Sittles Farm Airfield",
    "gps_code": "GB-0199",
    "freq": "",
    "Lat": 52.707127,
    "Lon": -1.750055,
    "Ele": 60.0
  },
  {
    "type": "small_airport",
    "name": "Hanley Farm Airstrip",
    "gps_code": "GB-0200",
    "freq": "",
    "Lat": 52.298995,
    "Lon": -2.469511,
    "Ele": 196.6
  },
  {
    "type": "small_airport",
    "name": "Glenswinton Farm Airstrip",
    "gps_code": "GB-0201",
    "freq": "135.475",
    "Lat": 55.047763,
    "Lon": -4.031649,
    "Ele": 158.5
  },
  {
    "type": "small_airport",
    "name": "Insch Airstrip",
    "gps_code": "GB-0202",
    "freq": "135.475",
    "Lat": 57.310997,
    "Lon": -2.648415,
    "Ele": 152.4
  },
  {
    "type": "small_airport",
    "name": "Westonzoyland Airfield",
    "gps_code": "GB-0203",
    "freq": "129.825",
    "Lat": 51.10684,
    "Lon": -2.908688,
    "Ele": 9.1
  },
  {
    "type": "small_airport",
    "name": "Plaistows Airfield",
    "gps_code": "GB-0204",
    "freq": "129.825",
    "Lat": 51.728167,
    "Lon": -0.380173,
    "Ele": 120.4
  },
  {
    "type": "small_airport",
    "name": "Nantclwyd Airstrip",
    "gps_code": "GB-0205",
    "freq": "130.380",
    "Lat": 53.063218,
    "Lon": -3.32298,
    "Ele": 107.9
  },
  {
    "type": "small_airport",
    "name": "Wingland Airfield",
    "gps_code": "GB-0206",
    "freq": "",
    "Lat": 52.814181,
    "Lon": 0.113048,
    "Ele": 4.0
  },
  {
    "type": "small_airport",
    "name": "Thornborough Grounds Airstrip",
    "gps_code": "GB-0208",
    "freq": "135.475",
    "Lat": 52.005948,
    "Lon": -0.935376,
    "Ele": 82.3
  },
  {
    "type": "small_airport",
    "name": "Watchford Farm Airstrip",
    "gps_code": "GB-0209",
    "freq": "",
    "Lat": 50.9023839,
    "Lon": -3.0981345,
    "Ele": 0.0
  },
  {
    "type": "small_airport",
    "name": "Twycross (Gopsall House) Airstrip",
    "gps_code": "GB-0210",
    "freq": "",
    "Lat": 52.643194,
    "Lon": -1.471772,
    "Ele": 100.9
  },
  {
    "type": "small_airport",
    "name": "Whitehill Farm Airstrip",
    "gps_code": "GB-0212",
    "freq": "",
    "Lat": 52.097053,
    "Lon": 0.016454,
    "Ele": 25.9
  },
  {
    "type": "small_airport",
    "name": "Pear Tree Farm Airstrip",
    "gps_code": "GB-0213",
    "freq": "",
    "Lat": 51.903206,
    "Lon": -1.076158,
    "Ele": 71.0
  },
  {
    "type": "small_airport",
    "name": "Jericho Farm Airstrip",
    "gps_code": "GB-0214",
    "freq": "",
    "Lat": 53.01043,
    "Lon": -1.057198,
    "Ele": 95.1
  },
  {
    "type": "small_airport",
    "name": "Jubilee Farm Airstrip",
    "gps_code": "GB-0215",
    "freq": "",
    "Lat": 52.630789,
    "Lon": 0.064125,
    "Ele": 10.1
  },
  {
    "type": "small_airport",
    "name": "Ashley's Field Airstrip",
    "gps_code": "GB-0216",
    "freq": "",
    "Lat": 53.219069,
    "Lon": 0.270528,
    "Ele": 2.1
  },
  {
    "type": "small_airport",
    "name": "Clutton Hill Airstrip",
    "gps_code": "GB-0217",
    "freq": "",
    "Lat": 51.341508,
    "Lon": -2.522674,
    "Ele": 189.9
  },
  {
    "type": "small_airport",
    "name": "Rayne Hall Farm Airstrip",
    "gps_code": "GB-0219",
    "freq": "",
    "Lat": 51.885498,
    "Lon": 0.522122,
    "Ele": 75.0
  },
  {
    "type": "small_airport",
    "name": "Spence Airfield",
    "gps_code": "GB-0220",
    "freq": "",
    "Lat": 51.839053,
    "Lon": -2.59089,
    "Ele": 175.0
  },
  {
    "type": "small_airport",
    "name": "Sandhill Farm Airstrip",
    "gps_code": "GB-0221",
    "freq": "",
    "Lat": 51.605203,
    "Lon": -1.674562,
    "Ele": 109.1
  },
  {
    "type": "small_airport",
    "name": "Tower Farm Airstrip",
    "gps_code": "GB-0222",
    "freq": "",
    "Lat": 52.259481,
    "Lon": -0.655653,
    "Ele": 92.0
  },
  {
    "type": "small_airport",
    "name": "Pent Farm Airstrip",
    "gps_code": "GB-0223",
    "freq": "",
    "Lat": 51.109091,
    "Lon": 1.053118,
    "Ele": 92.0
  },
  {
    "type": "small_airport",
    "name": "Holly Meadow Farm Airstrip",
    "gps_code": "GB-0224",
    "freq": "",
    "Lat": 53.004871,
    "Lon": -1.656872,
    "Ele": 192.9
  },
  {
    "type": "small_airport",
    "name": "Stoodleigh Barton Private Airstrip",
    "gps_code": "GB-0225",
    "freq": "",
    "Lat": 50.957271,
    "Lon": -3.530185,
    "Ele": 231.0
  },
  {
    "type": "small_airport",
    "name": "Talybont Airstrip",
    "gps_code": "GB-0226",
    "freq": "",
    "Lat": 52.61241,
    "Lon": -4.075038,
    "Ele": 0.0
  },
  {
    "type": "small_airport",
    "name": "North Moor Aero Club Airfield",
    "gps_code": "GB-0227",
    "freq": "",
    "Lat": 53.534129,
    "Lon": -0.6848,
    "Ele": 7.0
  },
  {
    "type": "small_airport",
    "name": "Redmoor Farm Airstrip",
    "gps_code": "GB-0228",
    "freq": "",
    "Lat": 53.840335,
    "Lon": -0.971795,
    "Ele": 9.1
  },
  {
    "type": "small_airport",
    "name": "Oaklands Farm Airstrip",
    "gps_code": "GB-0230",
    "freq": "",
    "Lat": 51.847169,
    "Lon": -1.439688,
    "Ele": 118.9
  },
  {
    "type": "small_airport",
    "name": "Berrow Airstrip",
    "gps_code": "GB-0231",
    "freq": "",
    "Lat": 52.000922,
    "Lon": -2.356869,
    "Ele": 54.9
  },
  {
    "type": "small_airport",
    "name": "Stoney Lane Farm Airstrip",
    "gps_code": "GB-0232",
    "freq": "",
    "Lat": 52.331893,
    "Lon": -1.994214,
    "Ele": 143.0
  },
  {
    "type": "small_airport",
    "name": "Old Hay Airfield",
    "gps_code": "GB-0233",
    "freq": "",
    "Lat": 51.178758,
    "Lon": 0.425623,
    "Ele": 15.8
  },
  {
    "type": "small_airport",
    "name": "Laddingford Aerodrome",
    "gps_code": "GB-0234",
    "freq": "",
    "Lat": 51.1914,
    "Lon": 0.411277,
    "Ele": 13.1
  },
  {
    "type": "small_airport",
    "name": "High Cross Airstrip",
    "gps_code": "GB-0235",
    "freq": "",
    "Lat": 51.850634,
    "Lon": -0.003405,
    "Ele": 95.1
  },
  {
    "type": "small_airport",
    "name": "Kingsmuir Airfield",
    "gps_code": "GB-0236",
    "freq": "",
    "Lat": 56.268957,
    "Lon": -2.750857,
    "Ele": 118.0
  },
  {
    "type": "small_airport",
    "name": "Little Chase Farm Airstrip",
    "gps_code": "GB-0237",
    "freq": "",
    "Lat": 52.357289,
    "Lon": -1.622811,
    "Ele": 106.1
  },
  {
    "type": "small_airport",
    "name": "Wild Geese Skydive Centre",
    "gps_code": "GB-0238",
    "freq": "",
    "Lat": 54.987625,
    "Lon": -6.644028,
    "Ele": 51.2
  },
  {
    "type": "small_airport",
    "name": "Whiterashes Farm Airstrip",
    "gps_code": "GB-0239",
    "freq": "",
    "Lat": 57.319016,
    "Lon": -2.248819,
    "Ele": 122.5
  },
  {
    "type": "small_airport",
    "name": "Grove Farm Airstrip",
    "gps_code": "GB-0240",
    "freq": "130.430",
    "Lat": 53.31413,
    "Lon": -0.866172,
    "Ele": 75.0
  },
  {
    "type": "small_airport",
    "name": "Nuthampstead Airstrip",
    "gps_code": "GB-0242",
    "freq": "",
    "Lat": 51.995294,
    "Lon": 0.070144,
    "Ele": 142.0
  },
  {
    "type": "small_airport",
    "name": "Melrose Farm Airstrip",
    "gps_code": "GB-0243",
    "freq": "",
    "Lat": 53.868434,
    "Lon": -0.837945,
    "Ele": 11.0
  },
  {
    "type": "small_airport",
    "name": "Peterlee Airfield",
    "gps_code": "GB-0245",
    "freq": "",
    "Lat": 54.766838,
    "Lon": -1.384377,
    "Ele": 0.0
  },
  {
    "type": "small_airport",
    "name": "Wharf Farm Airstrip",
    "gps_code": "GB-0246",
    "freq": "",
    "Lat": 52.627313,
    "Lon": -1.418407,
    "Ele": 0.0
  },
  {
    "type": "small_airport",
    "name": "Rufforth East Airfield",
    "gps_code": "GB-0248",
    "freq": "135.475",
    "Lat": 53.952146,
    "Lon": -1.174893,
    "Ele": 19.8
  },
  {
    "type": "small_airport",
    "name": "Monewden Airstrip",
    "gps_code": "GB-0249",
    "freq": "",
    "Lat": 52.168089,
    "Lon": 1.260251,
    "Ele": 0.0
  },
  {
    "type": "small_airport",
    "name": "Shacklewell Lodge Farm Airstrip",
    "gps_code": "GB-0250",
    "freq": "",
    "Lat": 52.652515,
    "Lon": -0.570994,
    "Ele": 0.0
  },
  {
    "type": "small_airport",
    "name": "Chirk Airfield",
    "gps_code": "GB-0251",
    "freq": "",
    "Lat": 52.947437,
    "Lon": -3.046047,
    "Ele": 0.0
  },
  {
    "type": "small_airport",
    "name": "Crowland Glider Field",
    "gps_code": "GB-0252",
    "freq": "",
    "Lat": 52.709547,
    "Lon": -0.139669,
    "Ele": 0.0
  },
  {
    "type": "small_airport",
    "name": "Manor Farm Airstrip",
    "gps_code": "GB-0253",
    "freq": "",
    "Lat": 52.912604,
    "Lon": 0.952548,
    "Ele": 0.0
  },
  {
    "type": "small_airport",
    "name": "Gutchpool Farm Airstrip",
    "gps_code": "GB-0254",
    "freq": "",
    "Lat": 51.057251,
    "Lon": -2.233409,
    "Ele": 86.9
  },
  {
    "type": "small_airport",
    "name": "Gorrel Farm Airstrip",
    "gps_code": "GB-0255",
    "freq": "",
    "Lat": 50.9438009,
    "Lon": -4.386336,
    "Ele": 0.0
  },
  {
    "type": "small_airport",
    "name": "Swanton Morley Airfield",
    "gps_code": "GB-0256",
    "freq": "",
    "Lat": 52.734804,
    "Lon": 0.962011,
    "Ele": 39.9
  },
  {
    "type": "small_airport",
    "name": "Stones Farm Airstrip",
    "gps_code": "GB-0257",
    "freq": "",
    "Lat": 51.989162,
    "Lon": 0.65789,
    "Ele": 0.0
  },
  {
    "type": "small_airport",
    "name": "Clipgate Farm Airstrip",
    "gps_code": "GB-0258",
    "freq": "",
    "Lat": 51.187037,
    "Lon": 1.153392,
    "Ele": 0.0
  },
  {
    "type": "small_airport",
    "name": "Charlton Park Airstrip",
    "gps_code": "GB-0259",
    "freq": "",
    "Lat": 51.599665,
    "Lon": -2.078113,
    "Ele": 0.0
  },
  {
    "type": "small_airport",
    "name": "Felixkirk Airstrip",
    "gps_code": "GB-0260",
    "freq": "",
    "Lat": 54.25185,
    "Lon": -1.294692,
    "Ele": 71.0
  },
  {
    "type": "small_airport",
    "name": "Top Farm Airfield",
    "gps_code": "GB-0261",
    "freq": "",
    "Lat": 52.123039,
    "Lon": -0.117424,
    "Ele": 68.9
  },
  {
    "type": "small_airport",
    "name": "Griffin's Farm Airstrip",
    "gps_code": "GB-0262",
    "freq": "",
    "Lat": 53.077296,
    "Lon": -0.511852,
    "Ele": 73.2
  },
  {
    "type": "small_airport",
    "name": "Peplow Airstrip",
    "gps_code": "GB-0263",
    "freq": "",
    "Lat": 52.8028279,
    "Lon": -2.5019638,
    "Ele": 0.0
  },
  {
    "type": "small_airport",
    "name": "Long Stratton Airstrip",
    "gps_code": "GB-0264",
    "freq": "",
    "Lat": 52.4881514,
    "Lon": 1.2165196,
    "Ele": 0.0
  },
  {
    "type": "small_airport",
    "name": "Lower Withial Farm Airstrip",
    "gps_code": "GB-0265",
    "freq": "",
    "Lat": 51.125318,
    "Lon": -2.596594,
    "Ele": 0.0
  },
  {
    "type": "small_airport",
    "name": "Upper Harford Airstrip",
    "gps_code": "GB-0266",
    "freq": "",
    "Lat": 51.888613,
    "Lon": -1.818346,
    "Ele": 224.9
  },
  {
    "type": "small_airport",
    "name": "Rosemarket Airstrip",
    "gps_code": "GB-0267",
    "freq": "",
    "Lat": 51.74526,
    "Lon": -4.9642344,
    "Ele": 0.0
  },
  {
    "type": "small_airport",
    "name": "Westover Farm Airstrip",
    "gps_code": "GB-0268",
    "freq": "",
    "Lat": 50.842154,
    "Lon": -4.167039,
    "Ele": 0.0
  },
  {
    "type": "small_airport",
    "name": "Ince Blundell Microlight Airfield",
    "gps_code": "GB-0269",
    "freq": "",
    "Lat": 53.536226,
    "Lon": -3.031497,
    "Ele": 3.0
  },
  {
    "type": "small_airport",
    "name": "Mitchell's Farm Airstrip",
    "gps_code": "GB-0270",
    "freq": "",
    "Lat": 52.337386,
    "Lon": 0.182883,
    "Ele": 0.0
  },
  {
    "type": "small_airport",
    "name": "Kingfisher's Bridge Airstrip",
    "gps_code": "GB-0271",
    "freq": "",
    "Lat": 52.3305139,
    "Lon": 0.2681335,
    "Ele": 0.0
  },
  {
    "type": "small_airport",
    "name": "Newnham Airstrip",
    "gps_code": "GB-0272",
    "freq": "",
    "Lat": 52.01986,
    "Lon": -0.167785,
    "Ele": 0.0
  },
  {
    "type": "small_airport",
    "name": "South Cave / Mount Airy Airfield",
    "gps_code": "GB-0273",
    "freq": "",
    "Lat": 53.772322,
    "Lon": -0.575937,
    "Ele": 0.0
  },
  {
    "type": "small_airport",
    "name": "Little Staughton Airfield",
    "gps_code": "GB-0274",
    "freq": "",
    "Lat": 52.242757,
    "Lon": -0.363302,
    "Ele": 0.0
  },
  {
    "type": "small_airport",
    "name": "Lydeway Field",
    "gps_code": "GB-0275",
    "freq": "",
    "Lat": 51.33096,
    "Lon": -1.928939,
    "Ele": 0.0
  },
  {
    "type": "small_airport",
    "name": "Lower Grounds Farm Airstrip",
    "gps_code": "GB-0276",
    "freq": "",
    "Lat": 52.735708,
    "Lon": -2.601444,
    "Ele": 60.0
  },
  {
    "type": "small_airport",
    "name": "Stow Airstrip",
    "gps_code": "GB-0277",
    "freq": "",
    "Lat": 53.321569,
    "Lon": -0.678138,
    "Ele": 22.9
  },
  {
    "type": "small_airport",
    "name": "Niden Manor Farm Airstrip",
    "gps_code": "GB-0278",
    "freq": "",
    "Lat": 52.1258096,
    "Lon": -1.1700706,
    "Ele": 0.0
  },
  {
    "type": "small_airport",
    "name": "Stoke Golding Airfield",
    "gps_code": "GB-0279",
    "freq": "129.825",
    "Lat": 52.5800833,
    "Lon": -1.4313333,
    "Ele": 91.4
  },
  {
    "type": "small_airport",
    "name": "Deenethorpe Airfield",
    "gps_code": "GB-0280",
    "freq": "",
    "Lat": 52.506271,
    "Lon": -0.589011,
    "Ele": 0.0
  },
  {
    "type": "small_airport",
    "name": "Lyveden Airfield",
    "gps_code": "GB-0281",
    "freq": "",
    "Lat": 52.465318,
    "Lon": -0.574808,
    "Ele": 0.0
  },
  {
    "type": "small_airport",
    "name": "Newnham Grounds Airstrip",
    "gps_code": "GB-0282",
    "freq": "",
    "Lat": 52.2376234,
    "Lon": -1.1416561,
    "Ele": 0.0
  },
  {
    "type": "small_airport",
    "name": "Lark Engine Farmhouse Airstrip",
    "gps_code": "GB-0283",
    "freq": "",
    "Lat": 52.4226804,
    "Lon": 0.3776757,
    "Ele": 0.0
  },
  {
    "type": "small_airport",
    "name": "Haxey Airstrip",
    "gps_code": "GB-0284",
    "freq": "",
    "Lat": 53.4924766,
    "Lon": -0.8143633,
    "Ele": 0.0
  },
  {
    "type": "small_airport",
    "name": "Hatton Airstrip",
    "gps_code": "GB-0285",
    "freq": "",
    "Lat": 57.4067508,
    "Lon": -1.9115685,
    "Ele": 0.0
  },
  {
    "type": "small_airport",
    "name": "Hall Farm Airstrip",
    "gps_code": "GB-0286",
    "freq": "",
    "Lat": 53.300953,
    "Lon": 0.274894,
    "Ele": 2.1
  },
  {
    "type": "small_airport",
    "name": "Charterhall Airfield",
    "gps_code": "GB-0287",
    "freq": "",
    "Lat": 55.7075978,
    "Lon": -2.3785037,
    "Ele": 106.7
  },
  {
    "type": "small_airport",
    "name": "Castle Kennedy Airfield",
    "gps_code": "GB-0288",
    "freq": "",
    "Lat": 54.897551,
    "Lon": -4.936961,
    "Ele": 0.0
  },
  {
    "type": "small_airport",
    "name": "Finningley Village Airstrip",
    "gps_code": "GB-0289",
    "freq": "",
    "Lat": 53.5081624,
    "Lon": -0.9409418,
    "Ele": 0.0
  },
  {
    "type": "small_airport",
    "name": "Garforth Airstrip",
    "gps_code": "GB-0290",
    "freq": "",
    "Lat": 53.790653,
    "Lon": -1.356093,
    "Ele": 82.3
  },
  {
    "type": "small_airport",
    "name": "Midlem Airstrip",
    "gps_code": "GB-0291",
    "freq": "",
    "Lat": 55.540033,
    "Lon": -2.74271,
    "Ele": 0.0
  },
  {
    "type": "small_airport",
    "name": "Milden Airstrip",
    "gps_code": "GB-0292",
    "freq": "",
    "Lat": 52.069747,
    "Lon": 0.857061,
    "Ele": 0.0
  },
  {
    "type": "small_airport",
    "name": "Little Down Farm Airstrip",
    "gps_code": "GB-0293",
    "freq": "",
    "Lat": 52.361079,
    "Lon": -2.545702,
    "Ele": 146.0
  },
  {
    "type": "small_airport",
    "name": "Upwood Glider Field",
    "gps_code": "GB-0294",
    "freq": "",
    "Lat": 52.437321,
    "Lon": -0.142813,
    "Ele": 21.9
  },
  {
    "type": "small_airport",
    "name": "Ranston Farm Airstrip",
    "gps_code": "GB-0295",
    "freq": "",
    "Lat": 50.915376,
    "Lon": -2.184233,
    "Ele": 146.0
  },
  {
    "type": "small_airport",
    "name": "East Lochlane Farm Airstrip",
    "gps_code": "GB-0296",
    "freq": "",
    "Lat": 56.3678531,
    "Lon": -3.8722739,
    "Ele": 0.0
  },
  {
    "type": "small_airport",
    "name": "Halwell Airstrip",
    "gps_code": "GB-0297",
    "freq": "",
    "Lat": 50.365216,
    "Lon": -3.707156,
    "Ele": 191.1
  },
  {
    "type": "small_airport",
    "name": "Green Farm Airstrip",
    "gps_code": "GB-0298",
    "freq": "",
    "Lat": 52.1600872,
    "Lon": -1.5481724,
    "Ele": 0.0
  },
  {
    "type": "small_airport",
    "name": "Nayland Airstrip",
    "gps_code": "GB-0300",
    "freq": "",
    "Lat": 51.974486,
    "Lon": 0.849895,
    "Ele": 48.8
  },
  {
    "type": "small_airport",
    "name": "Great Ashfield Airstrip",
    "gps_code": "GB-0301",
    "freq": "",
    "Lat": 52.256084,
    "Lon": 0.932766,
    "Ele": 68.0
  },
  {
    "type": "small_airport",
    "name": "Claybrooke Farm Airstrip",
    "gps_code": "GB-0302",
    "freq": "",
    "Lat": 52.509143,
    "Lon": -1.279523,
    "Ele": 0.0
  },
  {
    "type": "small_airport",
    "name": "Croft Airstrip",
    "gps_code": "GB-0303",
    "freq": "",
    "Lat": 53.123123,
    "Lon": 0.252256,
    "Ele": 4.0
  },
  {
    "type": "small_airport",
    "name": "Craysmarsh Airstrip",
    "gps_code": "GB-0304",
    "freq": "",
    "Lat": 51.363649,
    "Lon": -2.090858,
    "Ele": 0.0
  },
  {
    "type": "small_airport",
    "name": "Haydock Park Airstrip",
    "gps_code": "GB-0309",
    "freq": "",
    "Lat": 53.478357,
    "Lon": -2.622433,
    "Ele": 43.9
  },
  {
    "type": "small_airport",
    "name": "Bryn Gates Airfield",
    "gps_code": "GB-0310",
    "freq": "",
    "Lat": 53.513189,
    "Lon": -2.625593,
    "Ele": 0.0
  },
  {
    "type": "small_airport",
    "name": "Rush Green Airstrip",
    "gps_code": "GB-0311",
    "freq": "",
    "Lat": 51.904275,
    "Lon": -0.248437,
    "Ele": 0.0
  },
  {
    "type": "small_airport",
    "name": "Otherton Airfield",
    "gps_code": "GB-0314",
    "freq": "",
    "Lat": 52.709484,
    "Lon": -2.092081,
    "Ele": 0.0
  },
  {
    "type": "small_airport",
    "name": "RAF Kirknewton",
    "gps_code": "GB-0315",
    "freq": "",
    "Lat": 55.876667,
    "Lon": -3.399444,
    "Ele": 200.9
  },
  {
    "type": "small_airport",
    "name": "Napps Field Airstrip",
    "gps_code": "GB-0316",
    "freq": "135.475",
    "Lat": 51.65625,
    "Lon": 0.42067,
    "Ele": 61.0
  },
  {
    "type": "small_airport",
    "name": "Abergavenny Airstrip",
    "gps_code": "GB-0317",
    "freq": "",
    "Lat": 51.795023,
    "Lon": -2.994372,
    "Ele": 64.0
  },
  {
    "type": "small_airport",
    "name": "Allensmore Airfield",
    "gps_code": "GB-0318",
    "freq": "",
    "Lat": 51.989967,
    "Lon": -2.781699,
    "Ele": 0.0
  },
  {
    "type": "small_airport",
    "name": "Archerfield Airstrip",
    "gps_code": "GB-0319",
    "freq": "",
    "Lat": 56.043574,
    "Lon": -2.801755,
    "Ele": 0.0
  },
  {
    "type": "small_airport",
    "name": "Woodview Airfield",
    "gps_code": "GB-0321",
    "freq": "",
    "Lat": 54.370158,
    "Lon": -6.59167,
    "Ele": 0.0
  },
  {
    "type": "small_airport",
    "name": "Bakersfield Airstrip",
    "gps_code": "GB-0323",
    "freq": "",
    "Lat": 52.48487,
    "Lon": -0.618103,
    "Ele": 0.0
  },
  {
    "type": "small_airport",
    "name": "Baxterley Aerodrome",
    "gps_code": "GB-0324",
    "freq": "",
    "Lat": 52.56877,
    "Lon": -1.614299,
    "Ele": 0.0
  },
  {
    "type": "small_airport",
    "name": "Beeches Farm Airstrip",
    "gps_code": "GB-0325",
    "freq": "",
    "Lat": 53.159269,
    "Lon": -0.725236,
    "Ele": 11.0
  },
  {
    "type": "small_airport",
    "name": "Belle Vue Airfield",
    "gps_code": "GB-0326",
    "freq": "",
    "Lat": 50.976851,
    "Lon": -4.097184,
    "Ele": 0.0
  },
  {
    "type": "small_airport",
    "name": "Benington Airfield",
    "gps_code": "GB-0327",
    "freq": "",
    "Lat": 51.883113,
    "Lon": -0.123301,
    "Ele": 0.0
  },
  {
    "type": "small_airport",
    "name": "Binstead Airfield",
    "gps_code": "GB-0328",
    "freq": "",
    "Lat": 50.722077,
    "Lon": -1.204915,
    "Ele": 0.0
  },
  {
    "type": "small_airport",
    "name": "Blair Atholl Airfield",
    "gps_code": "GB-0329",
    "freq": "",
    "Lat": 56.763509,
    "Lon": -3.825599,
    "Ele": 0.0
  },
  {
    "type": "small_airport",
    "name": "Boughton North Airfield",
    "gps_code": "GB-0330",
    "freq": "",
    "Lat": 52.590886,
    "Lon": 0.517013,
    "Ele": 0.0
  },
  {
    "type": "small_airport",
    "name": "Stoke Ferry Airfield",
    "gps_code": "GB-0331",
    "freq": "",
    "Lat": 52.584145,
    "Lon": 0.515755,
    "Ele": 0.0
  },
  {
    "type": "small_airport",
    "name": "Bowerchalke Airfield",
    "gps_code": "GB-0332",
    "freq": "",
    "Lat": 50.983648,
    "Lon": -1.991682,
    "Ele": 0.0
  },
  {
    "type": "small_airport",
    "name": "Bowldown Farm Airstrip",
    "gps_code": "GB-0333",
    "freq": "",
    "Lat": 51.628872,
    "Lon": -2.237254,
    "Ele": 0.0
  },
  {
    "type": "small_airport",
    "name": "Breidden Airfield",
    "gps_code": "GB-0334",
    "freq": "",
    "Lat": 52.702036,
    "Lon": -3.092449,
    "Ele": 0.0
  },
  {
    "type": "small_airport",
    "name": "Bridlington Airfield",
    "gps_code": "GB-0335",
    "freq": "",
    "Lat": 54.120749,
    "Lon": -0.236527,
    "Ele": 0.0
  },
  {
    "type": "small_airport",
    "name": "Bucknall Airfield",
    "gps_code": "GB-0336",
    "freq": "",
    "Lat": 53.200044,
    "Lon": -0.253226,
    "Ele": 10.1
  },
  {
    "type": "small_airport",
    "name": "Calcot Airfield",
    "gps_code": "GB-0337",
    "freq": "",
    "Lat": 51.794453,
    "Lon": -1.835485,
    "Ele": 164.0
  },
  {
    "type": "small_airport",
    "name": "Chipping Airfield",
    "gps_code": "GB-0339",
    "freq": "",
    "Lat": 53.885042,
    "Lon": -2.620864,
    "Ele": 0.0
  },
  {
    "type": "small_airport",
    "name": "Skelling Farm Glider Field",
    "gps_code": "GB-0340",
    "freq": "",
    "Lat": 54.697922,
    "Lon": -2.584196,
    "Ele": 170.7
  },
  {
    "type": "small_airport",
    "name": "Garton Field Airstrip",
    "gps_code": "GB-0341",
    "freq": "122.075",
    "Lat": 53.796785,
    "Lon": -0.091667,
    "Ele": 12.2
  },
  {
    "type": "small_airport",
    "name": "Glebe Farm Airstrip",
    "gps_code": "GB-0353",
    "freq": "",
    "Lat": 53.006495,
    "Lon": -0.690165,
    "Ele": 27.1
  },
  {
    "type": "small_airport",
    "name": "Grangewood Airstrip",
    "gps_code": "GB-0354",
    "freq": "",
    "Lat": 52.732617,
    "Lon": -1.582621,
    "Ele": 114.0
  },
  {
    "type": "small_airport",
    "name": "Dunnyvadden Airstrip",
    "gps_code": "GB-0355",
    "freq": "",
    "Lat": 54.8487273,
    "Lon": -6.2069651,
    "Ele": 0.0
  },
  {
    "type": "small_airport",
    "name": "Chilsfold Farm Airstrip",
    "gps_code": "GB-0356",
    "freq": "",
    "Lat": 51.05991,
    "Lon": -0.592954,
    "Ele": 0.0
  },
  {
    "type": "small_airport",
    "name": "Bute Airfield",
    "gps_code": "GB-0357",
    "freq": "135.475",
    "Lat": 55.7567765,
    "Lon": -5.0479623,
    "Ele": 14.0
  },
  {
    "type": "small_airport",
    "name": "Sandford Hall Airstrip",
    "gps_code": "GB-0359",
    "freq": "",
    "Lat": 52.804565,
    "Lon": -2.990793,
    "Ele": 0.0
  },
  {
    "type": "small_airport",
    "name": "Brook Farm Airstrip",
    "gps_code": "GB-0360",
    "freq": "",
    "Lat": 52.9192308,
    "Lon": -1.7375729,
    "Ele": 0.0
  },
  {
    "type": "small_airport",
    "name": "Cliffe Airstrip",
    "gps_code": "GB-0361",
    "freq": "",
    "Lat": 53.785797,
    "Lon": -0.999844,
    "Ele": 7.9
  },
  {
    "type": "small_airport",
    "name": "Castlerock Airstrip",
    "gps_code": "GB-0362",
    "freq": "",
    "Lat": 55.1582291,
    "Lon": -6.7915365,
    "Ele": 0.0
  },
  {
    "type": "small_airport",
    "name": "Exning Airstrip",
    "gps_code": "GB-0363",
    "freq": "",
    "Lat": 52.2901671,
    "Lon": 0.3698329,
    "Ele": 0.0
  },
  {
    "type": "small_airport",
    "name": "Cottered Airstrip",
    "gps_code": "GB-0364",
    "freq": "",
    "Lat": 51.948102,
    "Lon": -0.098191,
    "Ele": 0.0
  },
  {
    "type": "small_airport",
    "name": "Holmbeck Farm Airfield",
    "gps_code": "GB-0365",
    "freq": "135.475",
    "Lat": 51.910275,
    "Lon": -0.729577,
    "Ele": 128.0
  },
  {
    "type": "small_airport",
    "name": "Stoke Airfield",
    "gps_code": "GB-0366",
    "freq": "",
    "Lat": 51.4456,
    "Lon": 0.633467,
    "Ele": 0.0
  },
  {
    "type": "small_airport",
    "name": "Chatteris Airfield",
    "gps_code": "GB-0367",
    "freq": "",
    "Lat": 52.4873,
    "Lon": 0.089111,
    "Ele": 1.5
  },
  {
    "type": "small_airport",
    "name": "Long Acres Farm",
    "gps_code": "GB-0368",
    "freq": "129.825",
    "Lat": 52.129787,
    "Lon": -0.310853,
    "Ele": 24.4
  },
  {
    "type": "small_airport",
    "name": "Darley Moor Airfield",
    "gps_code": "GB-0369",
    "freq": "135.475",
    "Lat": 52.9693,
    "Lon": -1.74868,
    "Ele": 176.8
  },
  {
    "type": "small_airport",
    "name": "Derryogue",
    "gps_code": "GB-0370",
    "freq": "",
    "Lat": 54.0517,
    "Lon": -6.029625,
    "Ele": 20.7
  },
  {
    "type": "small_airport",
    "name": "Decoy Farm Airstrip",
    "gps_code": "GB-0371",
    "freq": "",
    "Lat": 52.865514,
    "Lon": -0.303276,
    "Ele": 2.7
  },
  {
    "type": "small_airport",
    "name": "Shifnal Airfield",
    "gps_code": "GB-0372",
    "freq": "",
    "Lat": 52.668116,
    "Lon": -2.401969,
    "Ele": 128.0
  },
  {
    "type": "small_airport",
    "name": "Forest Farm Airstrip",
    "gps_code": "GB-0373",
    "freq": "",
    "Lat": 52.669214,
    "Lon": -3.0299325,
    "Ele": 0.0
  },
  {
    "type": "small_airport",
    "name": "Viewfield Airstrip",
    "gps_code": "GB-0374",
    "freq": "",
    "Lat": 57.6641249,
    "Lon": -3.188644,
    "Ele": 0.0
  },
  {
    "type": "small_airport",
    "name": "Falgunzeon Glider Airfield",
    "gps_code": "GB-0375",
    "freq": "",
    "Lat": 54.9445493,
    "Lon": -3.7393838,
    "Ele": 0.0
  },
  {
    "type": "small_airport",
    "name": "Yorkshire Gliding Club",
    "gps_code": "GB-0376",
    "freq": "",
    "Lat": 54.2306616,
    "Lon": -1.2111429,
    "Ele": 0.0
  },
  {
    "type": "small_airport",
    "name": "Croughton Manor Farm Airstrip",
    "gps_code": "GB-0377",
    "freq": "",
    "Lat": 51.9878923,
    "Lon": -1.2071769,
    "Ele": 0.0
  },
  {
    "type": "small_airport",
    "name": "Barling Airfield",
    "gps_code": "GB-0378",
    "freq": "",
    "Lat": 51.569041,
    "Lon": 0.794642,
    "Ele": 3.0
  },
  {
    "type": "small_airport",
    "name": "Latch Farm Airstrip",
    "gps_code": "GB-0379",
    "freq": "",
    "Lat": 55.8742,
    "Lon": -3.45464,
    "Ele": 195.1
  },
  {
    "type": "small_airport",
    "name": "North Hill Glider Field",
    "gps_code": "GB-0380",
    "freq": "",
    "Lat": 50.851586,
    "Lon": -3.274816,
    "Ele": 0.0
  },
  {
    "type": "small_airport",
    "name": "Walkeridge Farm Airstrip",
    "gps_code": "GB-0381",
    "freq": "",
    "Lat": 51.2922274,
    "Lon": -1.2482383,
    "Ele": 0.0
  },
  {
    "type": "small_airport",
    "name": "Seighford Glider Field",
    "gps_code": "GB-0382",
    "freq": "",
    "Lat": 52.827865,
    "Lon": -2.203651,
    "Ele": 98.1
  },
  {
    "type": "small_airport",
    "name": "North Wales Gliding Club",
    "gps_code": "GB-0383",
    "freq": "",
    "Lat": 53.043229,
    "Lon": -3.2219454,
    "Ele": 0.0
  },
  {
    "type": "small_airport",
    "name": "Kenley Glider Field",
    "gps_code": "GB-0384",
    "freq": "",
    "Lat": 51.305429,
    "Lon": -0.095957,
    "Ele": 0.0
  },
  {
    "type": "small_airport",
    "name": "Abbots Bromley Airfield",
    "gps_code": "GB-0385",
    "freq": "",
    "Lat": 52.819638,
    "Lon": -1.900911,
    "Ele": 0.0
  },
  {
    "type": "small_airport",
    "name": "Hollym Airfield",
    "gps_code": "GB-0387",
    "freq": "",
    "Lat": 53.7157,
    "Lon": 0.049669,
    "Ele": 15.2
  },
  {
    "type": "small_airport",
    "name": "Pitsford Water Aerodrome",
    "gps_code": "GB-0388",
    "freq": "",
    "Lat": 52.3153,
    "Lon": -0.871944,
    "Ele": 100.6
  },
  {
    "type": "small_airport",
    "name": "Sutton Meadows Airfield",
    "gps_code": "GB-0389",
    "freq": "",
    "Lat": 52.38711,
    "Lon": 0.06061,
    "Ele": 0.9
  },
  {
    "type": "small_airport",
    "name": "Coleman Green Airstrip",
    "gps_code": "GB-0390",
    "freq": "",
    "Lat": 51.7918157,
    "Lon": -0.274944,
    "Ele": 0.0
  },
  {
    "type": "small_airport",
    "name": "Pocklington Airfield",
    "gps_code": "GB-0391",
    "freq": "",
    "Lat": 53.925647,
    "Lon": -0.79432,
    "Ele": 27.4
  },
  {
    "type": "small_airport",
    "name": "South Wales Gliding Club",
    "gps_code": "GB-0392",
    "freq": "",
    "Lat": 51.719348,
    "Lon": -2.848748,
    "Ele": 0.0
  },
  {
    "type": "small_airport",
    "name": "Currock Hill Glider Field",
    "gps_code": "GB-0393",
    "freq": "",
    "Lat": 54.932695,
    "Lon": -1.846739,
    "Ele": 243.8
  },
  {
    "type": "small_airport",
    "name": "Little Snoring Airfield",
    "gps_code": "GB-0394",
    "freq": "",
    "Lat": 52.860285,
    "Lon": 0.903092,
    "Ele": 0.0
  },
  {
    "type": "small_airport",
    "name": "Main Hall Farm Airfield",
    "gps_code": "GB-0395",
    "freq": "",
    "Lat": 52.271944,
    "Lon": -0.070833,
    "Ele": 19.2
  },
  {
    "type": "small_airport",
    "name": "Chilbolton Airfield",
    "gps_code": "GB-0397",
    "freq": "",
    "Lat": 51.136852,
    "Lon": -1.419439,
    "Ele": 89.0
  },
  {
    "type": "small_airport",
    "name": "Saint Michaels Airfield",
    "gps_code": "GB-0398",
    "freq": "",
    "Lat": 53.8518,
    "Lon": -2.79346,
    "Ele": 8.5
  },
  {
    "type": "small_airport",
    "name": "Chase Farm Airstrip",
    "gps_code": "GB-0399",
    "freq": "",
    "Lat": 51.5681,
    "Lon": -2.38754,
    "Ele": 99.1
  },
  {
    "type": "small_airport",
    "name": "Lamb Holm Airfield",
    "gps_code": "GB-0400",
    "freq": "",
    "Lat": 58.8876,
    "Lon": -2.89184,
    "Ele": 19.8
  },
  {
    "type": "small_airport",
    "name": "Graveley Airstrip",
    "gps_code": "GB-0401",
    "freq": "",
    "Lat": 51.9407,
    "Lon": -0.203425,
    "Ele": 101.8
  },
  {
    "type": "small_airport",
    "name": "Knockbain Farm Airstrip",
    "gps_code": "GB-0402",
    "freq": "",
    "Lat": 57.589189,
    "Lon": -4.466958,
    "Ele": 181.7
  },
  {
    "type": "small_airport",
    "name": "Crockham Hill Airfield",
    "gps_code": "GB-0403",
    "freq": "",
    "Lat": 51.233604,
    "Lon": 0.08001,
    "Ele": 0.0
  },
  {
    "type": "small_airport",
    "name": "Norwood Lodge Airstrip",
    "gps_code": "GB-0404",
    "freq": "",
    "Lat": 51.834839,
    "Lon": 1.11391,
    "Ele": 27.4
  },
  {
    "type": "small_airport",
    "name": "Hardwicke Airstrip",
    "gps_code": "GB-0405",
    "freq": "",
    "Lat": 52.0853,
    "Lon": -3.06163,
    "Ele": 152.4
  },
  {
    "type": "small_airport",
    "name": "Harringe Court Airfield",
    "gps_code": "GB-0406",
    "freq": "",
    "Lat": 51.091745,
    "Lon": 0.988812,
    "Ele": 83.8
  },
  {
    "type": "small_airport",
    "name": "Yearby Airstrip",
    "gps_code": "GB-0407",
    "freq": "",
    "Lat": 54.5847,
    "Lon": -1.06953,
    "Ele": 27.1
  },
  {
    "type": "small_airport",
    "name": "Southdown Gliding Club",
    "gps_code": "GB-0408",
    "freq": "",
    "Lat": 50.924053,
    "Lon": -0.474753,
    "Ele": 0.0
  },
  {
    "type": "small_airport",
    "name": "Skydive Strathallan",
    "gps_code": "GB-0409",
    "freq": "",
    "Lat": 56.3253071,
    "Lon": -3.7492998,
    "Ele": 0.0
  },
  {
    "type": "small_airport",
    "name": "Tandragee Airstrip",
    "gps_code": "GB-0410",
    "freq": "",
    "Lat": 54.3865651,
    "Lon": -6.4001751,
    "Ele": 0.0
  },
  {
    "type": "small_airport",
    "name": "Husbands Bosworth Airfield",
    "gps_code": "GB-0411",
    "freq": "",
    "Lat": 52.438656,
    "Lon": -1.041789,
    "Ele": 160.0
  },
  {
    "type": "small_airport",
    "name": "Membury Airfield",
    "gps_code": "GB-0412",
    "freq": "",
    "Lat": 51.479812,
    "Lon": -1.560453,
    "Ele": 0.0
  },
  {
    "type": "small_airport",
    "name": "Nether Huntlywood Airstrip",
    "gps_code": "GB-0413",
    "freq": "",
    "Lat": 55.676638,
    "Lon": -2.60787,
    "Ele": 0.0
  },
  {
    "type": "small_airport",
    "name": "RAF Weston-on-the-Green",
    "gps_code": "GB-0414",
    "freq": "",
    "Lat": 51.878712,
    "Lon": -1.218775,
    "Ele": 86.0
  },
  {
    "type": "small_airport",
    "name": "RAF Keevil",
    "gps_code": "GB-0415",
    "freq": "",
    "Lat": 51.3129023,
    "Lon": -2.111585,
    "Ele": 0.0
  },
  {
    "type": "small_airport",
    "name": "Shenington Gliding Club",
    "gps_code": "GB-0416",
    "freq": "",
    "Lat": 52.0843451,
    "Lon": -1.4735737,
    "Ele": 0.0
  },
  {
    "type": "small_airport",
    "name": "Slay Barn Private Airstrip",
    "gps_code": "GB-0417",
    "freq": "",
    "Lat": 51.730686,
    "Lon": -1.143832,
    "Ele": 125.0
  },
  {
    "type": "small_airport",
    "name": "Wishanger Farm Private Airstrip",
    "gps_code": "GB-0418",
    "freq": "",
    "Lat": 51.150481,
    "Lon": -0.808142,
    "Ele": 0.0
  },
  {
    "type": "small_airport",
    "name": "Shotteswell/Banbury Airfield",
    "gps_code": "GB-0419",
    "freq": "",
    "Lat": 52.099336,
    "Lon": -1.380587,
    "Ele": 160.0
  },
  {
    "type": "small_airport",
    "name": "Tibenham Airfield",
    "gps_code": "GB-0420",
    "freq": "129.980",
    "Lat": 52.455906,
    "Lon": 1.156054,
    "Ele": 56.7
  },
  {
    "type": "small_airport",
    "name": "Stratford-upon-Avon Gliding Club",
    "gps_code": "GB-0421",
    "freq": "",
    "Lat": 52.23549,
    "Lon": -1.717787,
    "Ele": 0.0
  },
  {
    "type": "small_airport",
    "name": "Jenkins Farm Airstrip",
    "gps_code": "GB-0424",
    "freq": "",
    "Lat": 51.6404,
    "Lon": 0.202711,
    "Ele": 76.2
  },
  {
    "type": "small_airport",
    "name": "Burnham Airstrip",
    "gps_code": "GB-0425",
    "freq": "",
    "Lat": 52.938004,
    "Lon": 0.772644,
    "Ele": 38.1
  },
  {
    "type": "small_airport",
    "name": "Felthorpe Airfield",
    "gps_code": "GB-0426",
    "freq": "",
    "Lat": 52.7059,
    "Lon": 1.19449,
    "Ele": 45.7
  },
  {
    "type": "small_airport",
    "name": "Askern Airfield",
    "gps_code": "GB-0427",
    "freq": "",
    "Lat": 53.6104,
    "Lon": -1.13324,
    "Ele": 0.0
  },
  {
    "type": "small_airport",
    "name": "Drayton St Leonard Airfield",
    "gps_code": "GB-0428",
    "freq": "",
    "Lat": 51.6641,
    "Lon": -1.12693,
    "Ele": 50.0
  },
  {
    "type": "small_airport",
    "name": "Lleweni Parc Glyndwr Soaring Club",
    "gps_code": "GB-0429",
    "freq": "",
    "Lat": 53.210445,
    "Lon": -3.3855523,
    "Ele": 0.0
  },
  {
    "type": "small_airport",
    "name": "Barnards Farm",
    "gps_code": "GB-0431",
    "freq": "",
    "Lat": 51.564,
    "Lon": 0.355231,
    "Ele": 24.4
  },
  {
    "type": "small_airport",
    "name": "Brook Farm Ultralight Airstrip",
    "gps_code": "GB-0432",
    "freq": "",
    "Lat": 53.897788,
    "Lon": -2.902233,
    "Ele": 6.1
  },
  {
    "type": "small_airport",
    "name": "Tillingham Airstrip",
    "gps_code": "GB-0433",
    "freq": "",
    "Lat": 51.6928,
    "Lon": 0.872767,
    "Ele": 18.3
  },
  {
    "type": "small_airport",
    "name": "Ludham Airfield",
    "gps_code": "GB-0434",
    "freq": "",
    "Lat": 52.7185,
    "Lon": 1.55172,
    "Ele": 6.1
  },
  {
    "type": "small_airport",
    "name": "Charlton Mires Airstrip",
    "gps_code": "GB-0436",
    "freq": "",
    "Lat": 55.478947,
    "Lon": -1.726299,
    "Ele": 91.4
  },
  {
    "type": "small_airport",
    "name": "Baxby-Husthwaite Airfield",
    "gps_code": "GB-0438",
    "freq": "",
    "Lat": 54.168991,
    "Lon": -1.226767,
    "Ele": 39.6
  },
  {
    "type": "small_airport",
    "name": "Headon Microlight Airfield",
    "gps_code": "GB-0439",
    "freq": "",
    "Lat": 53.280868,
    "Lon": -0.868435,
    "Ele": 41.5
  },
  {
    "type": "small_airport",
    "name": "Tarn Farm Airfield (Rossall Field)",
    "gps_code": "GB-0440",
    "freq": "129.825",
    "Lat": 53.933935,
    "Lon": -2.843614,
    "Ele": 4.6
  },
  {
    "type": "small_airport",
    "name": "Easterton Glider Field",
    "gps_code": "GB-0441",
    "freq": "",
    "Lat": 57.5874,
    "Lon": -3.30685,
    "Ele": 109.7
  },
  {
    "type": "small_airport",
    "name": "Fort Augustus Airstrip",
    "gps_code": "GB-0442",
    "freq": "",
    "Lat": 57.127577,
    "Lon": -4.670706,
    "Ele": 140.2
  },
  {
    "type": "small_airport",
    "name": "Forwood Farm Airstrip",
    "gps_code": "GB-0443",
    "freq": "",
    "Lat": 53.3026,
    "Lon": -0.85115,
    "Ele": 41.1
  },
  {
    "type": "small_airport",
    "name": "Park Hall Airstrip",
    "gps_code": "GB-0445",
    "freq": "",
    "Lat": 52.9824,
    "Lon": -1.37108,
    "Ele": 118.9
  },
  {
    "type": "small_airport",
    "name": "Woodlow Farm Private Airstrip",
    "gps_code": "GB-0446",
    "freq": "",
    "Lat": 52.1061,
    "Lon": -2.45333,
    "Ele": 109.7
  },
  {
    "type": "small_airport",
    "name": "Manton Airfield",
    "gps_code": "GB-0447",
    "freq": "",
    "Lat": 51.4237,
    "Lon": -1.77079,
    "Ele": 178.3
  },
  {
    "type": "small_airport",
    "name": "Slieve Croob Airfield",
    "gps_code": "GB-0448",
    "freq": "",
    "Lat": 54.329596,
    "Lon": -5.945292,
    "Ele": 243.8
  },
  {
    "type": "small_airport",
    "name": "Swanborough Farm Airstrip",
    "gps_code": "GB-0449",
    "freq": "",
    "Lat": 50.853737,
    "Lon": 0.001996,
    "Ele": 7.6
  },
  {
    "type": "small_airport",
    "name": "Witherenden Airstrip",
    "gps_code": "GB-0450",
    "freq": "",
    "Lat": 51.0046,
    "Lon": 0.621697,
    "Ele": 10.7
  },
  {
    "type": "small_airport",
    "name": "Mendlesham Airstrip",
    "gps_code": "GB-0452",
    "freq": "",
    "Lat": 52.2295,
    "Lon": 1.12393,
    "Ele": 55.2
  },
  {
    "type": "small_airport",
    "name": "Willingale Airstrip",
    "gps_code": "GB-0453",
    "freq": "",
    "Lat": 51.7292,
    "Lon": 0.286556,
    "Ele": 76.2
  },
  {
    "type": "small_airport",
    "name": "Mitton Airstrip",
    "gps_code": "GB-0454",
    "freq": "",
    "Lat": 52.732917,
    "Lon": -2.185017,
    "Ele": 91.4
  },
  {
    "type": "small_airport",
    "name": "Brooklands Farm Airstrip",
    "gps_code": "GB-0455",
    "freq": "",
    "Lat": 52.3575,
    "Lon": -0.242917,
    "Ele": 15.2
  },
  {
    "type": "small_airport",
    "name": "Stonehill Farm Airstrip",
    "gps_code": "GB-0456",
    "freq": "",
    "Lat": 55.4669,
    "Lon": -3.84473,
    "Ele": 271.3
  },
  {
    "type": "small_airport",
    "name": "Spilstead Farm Airfield",
    "gps_code": "GB-0457",
    "freq": "",
    "Lat": 50.937535,
    "Lon": 0.520234,
    "Ele": 48.8
  },
  {
    "type": "small_airport",
    "name": "Broadmeadow Farm Airstrip",
    "gps_code": "GB-0459",
    "freq": "",
    "Lat": 52.025699,
    "Lon": -2.762393,
    "Ele": 99.1
  },
  {
    "type": "small_airport",
    "name": "Woonton Airstrip",
    "gps_code": "GB-0460",
    "freq": "",
    "Lat": 52.1626,
    "Lon": -2.9462,
    "Ele": 121.6
  },
  {
    "type": "small_airport",
    "name": "Gransden Lodge Airfield",
    "gps_code": "GB-0461",
    "freq": "",
    "Lat": 52.181597,
    "Lon": -0.112033,
    "Ele": 0.0
  },
  {
    "type": "small_airport",
    "name": "Octon Airstrip",
    "gps_code": "GB-0462",
    "freq": "",
    "Lat": 54.127292,
    "Lon": -0.430613,
    "Ele": 69.2
  },
  {
    "type": "small_airport",
    "name": "RAF Davidstow Moor",
    "gps_code": "GB-0463",
    "freq": "",
    "Lat": 50.6363,
    "Lon": -4.6134,
    "Ele": 294.1
  },
  {
    "type": "small_airport",
    "name": "Hunsdon Airfield",
    "gps_code": "GB-0464",
    "freq": "135.480",
    "Lat": 51.8078,
    "Lon": 0.069644,
    "Ele": 74.4
  },
  {
    "type": "small_airport",
    "name": "Culbokie Airstrip",
    "gps_code": "GB-0465",
    "freq": "",
    "Lat": 57.586843,
    "Lon": -4.31636,
    "Ele": 167.6
  },
  {
    "type": "small_airport",
    "name": "Hertfordshire Microlight Club London Colney Airstrip",
    "gps_code": "GB-0466",
    "freq": "",
    "Lat": 51.7056,
    "Lon": -0.274931,
    "Ele": 89.9
  },
  {
    "type": "small_airport",
    "name": "Pound Green Airfield",
    "gps_code": "GB-0467",
    "freq": "",
    "Lat": 52.403662,
    "Lon": -2.355254,
    "Ele": 109.7
  },
  {
    "type": "small_airport",
    "name": "Ewesley Airstrip",
    "gps_code": "GB-0468",
    "freq": "",
    "Lat": 55.2205,
    "Lon": -1.92621,
    "Ele": 84.7
  },
  {
    "type": "small_airport",
    "name": "Calton Moor Airfield",
    "gps_code": "GB-0469",
    "freq": "",
    "Lat": 53.0328,
    "Lon": -1.83495,
    "Ele": 301.8
  },
  {
    "type": "small_airport",
    "name": "Watnall Airfield",
    "gps_code": "GB-0470",
    "freq": "",
    "Lat": 53.0286,
    "Lon": -1.25577,
    "Ele": 125.0
  },
  {
    "type": "small_airport",
    "name": "Titsey Airstrip",
    "gps_code": "GB-0472",
    "freq": "",
    "Lat": 51.2756,
    "Lon": 0.0267556,
    "Ele": 0.0
  },
  {
    "type": "small_airport",
    "name": "Over Farm Microlight",
    "gps_code": "GB-0473",
    "freq": "",
    "Lat": 51.8761,
    "Lon": -2.28139,
    "Ele": 15.2
  },
  {
    "type": "small_airport",
    "name": "Middlebank Top Farm Airstrip",
    "gps_code": "GB-0474",
    "freq": "",
    "Lat": 53.7237,
    "Lon": -2.25557,
    "Ele": 295.0
  },
  {
    "type": "small_airport",
    "name": "Osbaston Lodge Farm Airstrip",
    "gps_code": "GB-0475",
    "freq": "",
    "Lat": 52.6367,
    "Lon": -1.39051,
    "Ele": 113.1
  },
  {
    "type": "small_airport",
    "name": "Brookfield Farm Airstrip",
    "gps_code": "GB-0476",
    "freq": "",
    "Lat": 53.428983,
    "Lon": -0.347879,
    "Ele": 32.9
  },
  {
    "type": "small_airport",
    "name": "Onecoat Morridge Airstrip",
    "gps_code": "GB-0477",
    "freq": "",
    "Lat": 53.114776,
    "Lon": -1.944237,
    "Ele": 422.5
  },
  {
    "type": "small_airport",
    "name": "Rathfriland Airstrip",
    "gps_code": "GB-0478",
    "freq": "",
    "Lat": 54.253246,
    "Lon": -6.229055,
    "Ele": 0.0
  },
  {
    "type": "small_airport",
    "name": "Rhedyn Coch Farm Airstrip",
    "gps_code": "GB-0479",
    "freq": "",
    "Lat": 53.2833,
    "Lon": -3.36713,
    "Ele": 187.5
  },
  {
    "type": "small_airport",
    "name": "Kemeys Commander Airstrip",
    "gps_code": "GB-0480",
    "freq": "",
    "Lat": 51.73486,
    "Lon": -2.93477,
    "Ele": 39.6
  },
  {
    "type": "small_airport",
    "name": "Viners Airstrip",
    "gps_code": "GB-0481",
    "freq": "",
    "Lat": 52.4806,
    "Lon": -1.34255,
    "Ele": 114.3
  },
  {
    "type": "small_airport",
    "name": "Thornhill Airfield",
    "gps_code": "GB-0482",
    "freq": "",
    "Lat": 56.14888,
    "Lon": -4.18588,
    "Ele": 0.0
  },
  {
    "type": "small_airport",
    "name": "High Flats Farm Airstrip",
    "gps_code": "GB-0483",
    "freq": "",
    "Lat": 54.8697,
    "Lon": -1.59656,
    "Ele": 67.1
  },
  {
    "type": "small_airport",
    "name": "Birds Edge Airstrip",
    "gps_code": "GB-0484",
    "freq": "",
    "Lat": 53.566906,
    "Lon": -1.684762,
    "Ele": 77.1
  },
  {
    "type": "small_airport",
    "name": "Crossmaglen Airstrip",
    "gps_code": "GB-0486",
    "freq": "",
    "Lat": 54.062915,
    "Lon": -6.55901,
    "Ele": 0.0
  },
  {
    "type": "small_airport",
    "name": "St Mellion Airstrip",
    "gps_code": "GB-0488",
    "freq": "",
    "Lat": 50.475245,
    "Lon": -4.308403,
    "Ele": 0.0
  },
  {
    "type": "small_airport",
    "name": "Redrock Airstrip",
    "gps_code": "GB-0489",
    "freq": "",
    "Lat": 54.302863,
    "Lon": -6.585688,
    "Ele": 0.0
  },
  {
    "type": "small_airport",
    "name": "Oakley Microlight Airfield",
    "gps_code": "GB-0490",
    "freq": "",
    "Lat": 51.783458,
    "Lon": -1.074396,
    "Ele": 74.1
  },
  {
    "type": "small_airport",
    "name": "Dunnamanagh Airstrip",
    "gps_code": "GB-0491",
    "freq": "",
    "Lat": 54.889695,
    "Lon": -7.266047,
    "Ele": 0.0
  },
  {
    "type": "small_airport",
    "name": "Rattlesden Airfield",
    "gps_code": "GB-0492",
    "freq": "130.290",
    "Lat": 52.168195,
    "Lon": 0.866375,
    "Ele": 0.0
  },
  {
    "type": "small_airport",
    "name": "Blackhill Airstrip",
    "gps_code": "GB-0493",
    "freq": "",
    "Lat": 54.8042209,
    "Lon": -6.7556928,
    "Ele": 0.0
  },
  {
    "type": "small_airport",
    "name": "Avon Lane Airfield",
    "gps_code": "GB-0494",
    "freq": "",
    "Lat": 51.410211,
    "Lon": -2.447792,
    "Ele": 27.1
  },
  {
    "type": "small_airport",
    "name": "Red House Farm Airstrip",
    "gps_code": "GB-0495",
    "freq": "",
    "Lat": 52.178085,
    "Lon": -1.176136,
    "Ele": 0.0
  },
  {
    "type": "small_airport",
    "name": "Kirton-in-Lindsey Glider Field",
    "gps_code": "GB-0497",
    "freq": "",
    "Lat": 53.4622,
    "Lon": -0.5769,
    "Ele": 64.0
  },
  {
    "type": "small_airport",
    "name": "Wold Lodge Airstrip",
    "gps_code": "GB-0498",
    "freq": "",
    "Lat": 52.368446,
    "Lon": -0.633624,
    "Ele": 86.0
  },
  {
    "type": "small_airport",
    "name": "Windsor Farm Airstrip",
    "gps_code": "GB-0499",
    "freq": "",
    "Lat": 53.197605,
    "Lon": 0.03781,
    "Ele": 54.9
  },