[
  {
    "type": "small_airport",
    "name": "Kiniéro Airport",
    "gps_code": "GN-0001",
    "freq": "",
    "Lat": 10.42242,
    "Lon": -9.77592,
    "Ele": 419.1
  },
  {
    "type": "small_airport",
    "name": "Loila Airport",
    "gps_code": "GN-0003",
    "freq": "",
    "Lat": 10.784886,
    "Lon": -8.868887,
    "Ele": 378.6
  },
  {
    "type": "small_airport",
    "name": "Beyla Airport",
    "gps_code": "GUBE",
    "freq": "",
    "Lat": 8.697222,
    "Lon": -8.713889,
    "Ele": 667.5
  },
  {
    "type": "medium_airport",
    "name": "Conakry International Airport",
    "gps_code": "GUCY",
    "freq": "658.900",
    "Lat": 9.57689,
    "Lon": -13.612,
    "Ele": 21.9
  },
  {
    "type": "small_airport",
    "name": "Fria Airport",
    "gps_code": "GUFA",
    "freq": "658.900",
    "Lat": 10.3506,
    "Lon": -13.5692,
    "Ele": 152.1
  },
  {
    "type": "small_airport",
    "name": "Faranah Airport",
    "gps_code": "GUFH",
    "freq": "658.900",
    "Lat": 10.0354995728,
    "Lon": -10.7698001862,
    "Ele": 449.9
  },
  {
    "type": "small_airport",
    "name": "Gbenko Airport",
    "gps_code": "GUGO",
    "freq": "",
    "Lat": 9.24284,
    "Lon": -9.29997,
    "Ele": 650.1
  },
  {
    "type": "small_airport",
    "name": "Kawass Airport",
    "gps_code": "GUKR",
    "freq": "",
    "Lat": 10.657484,
    "Lon": -14.532337,
    "Ele": 11.0
  },
  {
    "type": "small_airport",
    "name": "Kissidougou Airport",
    "gps_code": "GUKU",
    "freq": "",
    "Lat": 9.1605596542358,
    "Lon": -10.124400138855,
    "Ele": 551.1
  },
  {
    "type": "small_airport",
    "name": "Tata Airport",
    "gps_code": "GULB",
    "freq": "658.900",
    "Lat": 11.337512,
    "Lon": -12.290869,
    "Ele": 1035.1
  },
  {
    "type": "small_airport",
    "name": "Macenta Airport",
    "gps_code": "GUMA",
    "freq": "",
    "Lat": 8.481456,
    "Lon": -9.526048,
    "Ele": 515.1
  },
  {
    "type": "small_airport",
    "name": "Nzérékoré Airport",
    "gps_code": "GUNZ",
    "freq": "",
    "Lat": 7.810413,
    "Lon": -8.702073,
    "Ele": 505.1
  },
  {
    "type": "small_airport",
    "name": "Boké Baralande Airport",
    "gps_code": "GUOK",
    "freq": "",
    "Lat": 10.9658,
    "Lon": -14.2811,
    "Ele": 50.0
  },
  {
    "type": "small_airport",
    "name": "Sangarédi Airport",
    "gps_code": "GUSA",
    "freq": "",
    "Lat": 11.114558,
    "Lon": -13.815834,
    "Ele": 209.1
  },
  {
    "type": "small_airport",
    "name": "Sambailo Airport",
    "gps_code": "GUSB",
    "freq": "",
    "Lat": 12.575315,
    "Lon": -13.363349,
    "Ele": 89.9
  },
  {
    "type": "small_airport",
    "name": "Siguiri Airport",
    "gps_code": "GUSI",
    "freq": "",
    "Lat": 11.399833,
    "Lon": -9.18841,
    "Ele": 395.0
  },
  {
    "type": "small_airport",
    "name": "Kankan Airport",
    "gps_code": "GXUD",
    "freq": "",
    "Lat": 10.448438,
    "Lon": -9.228757,
    "Ele": 376.1
  }
]