[
  {
    "type": "small_airport",
    "name": "Pantar Kabir Airport",
    "gps_code": "AXO",
    "freq": "",
    "Lat": -8.244832,
    "Lon": 124.219108,
    "Ele": 5.5
  },
  {
    "type": "small_airport",
    "name": "Nop Goliat Dekai Airport",
    "gps_code": "DEX",
    "freq": "",
    "Lat": -4.8557,
    "Lon": 139.482006,
    "Ele": 60.4
  },
  {
    "type": "small_airport",
    "name": "Pulau Panjang Airport",
    "gps_code": "ID-0003",
    "freq": "",
    "Lat": -5.644444,
    "Lon": 106.5625,
    "Ele": 47.2
  },
  {
    "type": "small_airport",
    "name": "Okpahik Airstrip",
    "gps_code": "ID-0004",
    "freq": "",
    "Lat": -4.697855,
    "Lon": 140.770547,
    "Ele": 1920.2
  },
  {
    "type": "small_airport",
    "name": "Berau Airport",
    "gps_code": "ID-0008",
    "freq": "",
    "Lat": 2.16350007057,
    "Lon": 117.68699646,
    "Ele": 11.9
  },
  {
    "type": "small_airport",
    "name": "Jatiwangi Airport",
    "gps_code": "ID-0010",
    "freq": "",
    "Lat": -6.678375,
    "Lon": 108.252219444,
    "Ele": 0.0
  },
  {
    "type": "small_airport",
    "name": "Lasondre Airport",
    "gps_code": "ID-0012",
    "freq": "",
    "Lat": -0.01924,
    "Lon": 98.30097,
    "Ele": 9.1
  },
  {
    "type": "small_airport",
    "name": "Aboge Airstrip",
    "gps_code": "ID-0022",
    "freq": "",
    "Lat": -6.0634,
    "Lon": 139.267,
    "Ele": 16.2
  },
  {
    "type": "small_airport",
    "name": "Aboyi Airstrip",
    "gps_code": "ID-0023",
    "freq": "",
    "Lat": -4.288741,
    "Lon": 140.640664,
    "Ele": 252.4
  },
  {
    "type": "small_airport",
    "name": "Amazu Airstrip",
    "gps_code": "ID-0024",
    "freq": "",
    "Lat": -5.6119,
    "Lon": 139.6234,
    "Ele": 17.7
  },
  {
    "type": "small_airport",
    "name": "Ambisibil Airstrip",
    "gps_code": "ID-0025",
    "freq": "",
    "Lat": -4.6712,
    "Lon": 140.5746,
    "Ele": 1958.3
  },
  {
    "type": "small_airport",
    "name": "Angguruk Airstrip",
    "gps_code": "ID-0026",
    "freq": "",
    "Lat": -4.200167,
    "Lon": 139.432554,
    "Ele": 1469.1
  },
  {
    "type": "small_airport",
    "name": "Arsbol Airstrip",
    "gps_code": "ID-0027",
    "freq": "",
    "Lat": -3.6941,
    "Lon": 138.9372,
    "Ele": 853.4
  },
  {
    "type": "small_airport",
    "name": "Bentiang Airstrip",
    "gps_code": "ID-0028",
    "freq": "",
    "Lat": 0.9196,
    "Lon": 109.9155,
    "Ele": 728.5
  },
  {
    "type": "small_airport",
    "name": "Beoga Airport",
    "gps_code": "ID-0029",
    "freq": "",
    "Lat": -3.8165,
    "Lon": 137.4252,
    "Ele": 1901.3
  },
  {
    "type": "small_airport",
    "name": "Bime Airstrip",
    "gps_code": "ID-0030",
    "freq": "",
    "Lat": -4.48558,
    "Lon": 140.219843,
    "Ele": 1402.1
  },
  {
    "type": "small_airport",
    "name": "Diphikin Airstrip",
    "gps_code": "ID-0031",
    "freq": "",
    "Lat": -4.725525,
    "Lon": 140.792284,
    "Ele": 1697.1
  },
  {
    "type": "small_airport",
    "name": "Binuang Airstrip",
    "gps_code": "ID-0032",
    "freq": "",
    "Lat": 3.7147,
    "Lon": 115.8517,
    "Ele": 815.3
  },
  {
    "type": "small_airport",
    "name": "Biri Airstrip",
    "gps_code": "ID-0033",
    "freq": "",
    "Lat": -2.87793,
    "Lon": 137.76816,
    "Ele": 126.5
  },
  {
    "type": "small_airport",
    "name": "Bomela Airport",
    "gps_code": "ID-0034",
    "freq": "",
    "Lat": -4.693634,
    "Lon": 139.912707,
    "Ele": 1539.2
  },
  {
    "type": "small_airport",
    "name": "Bomomani Airstrip",
    "gps_code": "ID-0035",
    "freq": "",
    "Lat": -3.960942,
    "Lon": 135.939631,
    "Ele": 1513.6
  },
  {
    "type": "small_airport",
    "name": "Borme Airstrip",
    "gps_code": "ID-0036",
    "freq": "",
    "Lat": -4.394362,
    "Lon": 140.436348,
    "Ele": 996.7
  },
  {
    "type": "small_airport",
    "name": "Kurid  Airstrip",
    "gps_code": "ID-0037",
    "freq": "",
    "Lat": 3.798115,
    "Lon": 115.706339,
    "Ele": 993.6
  },
  {
    "type": "small_airport",
    "name": "Bugalaga Airstrip",
    "gps_code": "ID-0038",
    "freq": "",
    "Lat": -3.6235,
    "Lon": 136.5963,
    "Ele": 1938.5
  },
  {
    "type": "small_airport",
    "name": "Calang Airstrip",
    "gps_code": "ID-0039",
    "freq": "",
    "Lat": 4.612323,
    "Lon": 95.623534,
    "Ele": 9.8
  },
  {
    "type": "small_airport",
    "name": "Comoro Airstrip",
    "gps_code": "ID-0040",
    "freq": "",
    "Lat": -5.926349,
    "Lon": 138.631461,
    "Ele": 6.4
  },
  {
    "type": "small_airport",
    "name": "Dagai Airport",
    "gps_code": "ID-0041",
    "freq": "",
    "Lat": -3.305757,
    "Lon": 137.94366,
    "Ele": 105.8
  },
  {
    "type": "small_airport",
    "name": "Datah Dian Airstrip",
    "gps_code": "ID-0042",
    "freq": "",
    "Lat": 2.006992,
    "Lon": 115.151588,
    "Ele": 548.6
  },
  {
    "type": "small_airport",
    "name": "Daufo Airfield",
    "gps_code": "ID-0043",
    "freq": "",
    "Lat": -3.1737,
    "Lon": 137.2544,
    "Ele": 152.4
  },
  {
    "type": "small_airport",
    "name": "Derapos Airstrip",
    "gps_code": "ID-0044",
    "freq": "",
    "Lat": -2.9737,
    "Lon": 137.2234,
    "Ele": 132.0
  },
  {
    "type": "small_airport",
    "name": "Dou Airstrip",
    "gps_code": "ID-0045",
    "freq": "",
    "Lat": -3.262752,
    "Lon": 138.1484,
    "Ele": 91.1
  },
  {
    "type": "small_airport",
    "name": "Doyo Baru Airport",
    "gps_code": "ID-0046",
    "freq": "",
    "Lat": -2.538781,
    "Lon": 140.464293,
    "Ele": 117.3
  },
  {
    "type": "small_airport",
    "name": "Eaopoto Airstrip",
    "gps_code": "ID-0047",
    "freq": "",
    "Lat": -3.9497,
    "Lon": 136.3383,
    "Ele": 1798.3
  },
  {
    "type": "small_airport",
    "name": "Engkadik Airstrip",
    "gps_code": "ID-0048",
    "freq": "",
    "Lat": 0.9797,
    "Lon": 110.0282,
    "Ele": 667.5
  },
  {
    "type": "small_airport",
    "name": "Eri Airstrip",
    "gps_code": "ID-0049",
    "freq": "",
    "Lat": -2.6308,
    "Lon": 138.1094,
    "Ele": 134.1
  },
  {
    "type": "small_airport",
    "name": "Faowi Airstrip",
    "gps_code": "ID-0050",
    "freq": "",
    "Lat": -3.230632,
    "Lon": 137.726191,
    "Ele": 101.5
  },
  {
    "type": "small_airport",
    "name": "Foao Airstrip",
    "gps_code": "ID-0052",
    "freq": "",
    "Lat": -3.066,
    "Lon": 139.099,
    "Ele": 73.5
  },
  {
    "type": "small_airport",
    "name": "Fruata Airstrip",
    "gps_code": "ID-0053",
    "freq": "",
    "Lat": -2.9858,
    "Lon": 133.5001,
    "Ele": 58.5
  },
  {
    "type": "small_airport",
    "name": "Geyarek Airstrip",
    "gps_code": "ID-0054",
    "freq": "",
    "Lat": -4.650391,
    "Lon": 138.752389,
    "Ele": 75.6
  },
  {
    "type": "small_airport",
    "name": "Gilgal Airstrip",
    "gps_code": "ID-0055",
    "freq": "",
    "Lat": 0.458,
    "Lon": 111.0707,
    "Ele": 32.9
  },
  {
    "type": "small_airport",
    "name": "Gusimawa Airstrip",
    "gps_code": "ID-0056",
    "freq": "",
    "Lat": -3.0423,
    "Lon": 133.8779,
    "Ele": 39.9
  },
  {
    "type": "small_airport",
    "name": "Haya Airstrip",
    "gps_code": "ID-0057",
    "freq": "",
    "Lat": -2.8156,
    "Lon": 138.1099,
    "Ele": 76.2
  },
  {
    "type": "small_airport",
    "name": "Hing Airstrip",
    "gps_code": "ID-0058",
    "freq": "",
    "Lat": -1.233,
    "Lon": 133.9478,
    "Ele": 2042.2
  },
  {
    "type": "small_airport",
    "name": "Hitadipa Airport",
    "gps_code": "ID-0059",
    "freq": "",
    "Lat": -3.734325,
    "Lon": 137.116992,
    "Ele": 1542.6
  },
  {
    "type": "small_airport",
    "name": "Holuwon Airstrip",
    "gps_code": "ID-0060",
    "freq": "",
    "Lat": -4.480541,
    "Lon": 139.273998,
    "Ele": 1149.1
  },
  {
    "type": "small_airport",
    "name": "Hubliki Airstrip",
    "gps_code": "ID-0061",
    "freq": "",
    "Lat": -3.732237,
    "Lon": 139.286263,
    "Ele": 600.5
  },
  {
    "type": "small_airport",
    "name": "Hulu Atas Airstrip",
    "gps_code": "ID-0062",
    "freq": "",
    "Lat": -3.6799,
    "Lon": 140.22955,
    "Ele": 173.1
  },
  {
    "type": "small_airport",
    "name": "Ibele Airstrip",
    "gps_code": "ID-0063",
    "freq": "",
    "Lat": -4.052,
    "Lon": 138.796,
    "Ele": 1926.3
  },
  {
    "type": "small_airport",
    "name": "Kaiy Airstrip",
    "gps_code": "ID-0064",
    "freq": "",
    "Lat": -2.9871,
    "Lon": 138.1062,
    "Ele": 59.4
  },
  {
    "type": "small_airport",
    "name": "Illaga III Airport",
    "gps_code": "ID-0066",
    "freq": "",
    "Lat": -3.9993,
    "Lon": 137.65317,
    "Ele": 2338.7
  },
  {
    "type": "small_airport",
    "name": "Ilugwa/Antara Airport",
    "gps_code": "ID-0067",
    "freq": "",
    "Lat": -3.835894,
    "Lon": 138.921683,
    "Ele": 1981.2
  },
  {
    "type": "small_airport",
    "name": "Iratoi Airstrip",
    "gps_code": "ID-0068",
    "freq": "",
    "Lat": -3.2389,
    "Lon": 137.3339,
    "Ele": 107.3
  },
  {
    "type": "small_airport",
    "name": "Iray Airstrip",
    "gps_code": "ID-0069",
    "freq": "",
    "Lat": -1.33034,
    "Lon": 133.91081,
    "Ele": 1970.2
  },
  {
    "type": "small_airport",
    "name": "Iwur Airstrip",
    "gps_code": "ID-0070",
    "freq": "",
    "Lat": -5.139139,
    "Lon": 140.717638,
    "Ele": 249.9
  },
  {
    "type": "small_airport",
    "name": "Jila Airstrip",
    "gps_code": "ID-0071",
    "freq": "",
    "Lat": -4.24677,
    "Lon": 137.59563,
    "Ele": 1338.1
  },
  {
    "type": "small_airport",
    "name": "Jita Airstrip",
    "gps_code": "ID-0072",
    "freq": "",
    "Lat": -4.8564,
    "Lon": 137.7019,
    "Ele": 12.2
  },
  {
    "type": "small_airport",
    "name": "Kanggime Airstrip",
    "gps_code": "ID-0073",
    "freq": "",
    "Lat": -3.665978,
    "Lon": 138.361559,
    "Ele": 1521.0
  },
  {
    "type": "small_airport",
    "name": "Kasonaweja Airstrip",
    "gps_code": "ID-0074",
    "freq": "",
    "Lat": -2.3007,
    "Lon": 138.0327,
    "Ele": 26.8
  },
  {
    "type": "small_airport",
    "name": "Kaure  Airstrip",
    "gps_code": "ID-0075",
    "freq": "",
    "Lat": -3.469809,
    "Lon": 140.362085,
    "Ele": 213.4
  },
  {
    "type": "small_airport",
    "name": "Kedembak Airstrip",
    "gps_code": "ID-0076",
    "freq": "",
    "Lat": 0.5906,
    "Lon": 111.302,
    "Ele": 51.8
  },
  {
    "type": "small_airport",
    "name": "Kelansam Airstrip",
    "gps_code": "ID-0077",
    "freq": "",
    "Lat": 0.1228,
    "Lon": 111.4197,
    "Ele": 29.3
  },
  {
    "type": "small_airport",
    "name": "Keneyan Airstrip",
    "gps_code": "ID-0078",
    "freq": "",
    "Lat": -4.5995,
    "Lon": 138.3844,
    "Ele": 136.9
  },
  {
    "type": "small_airport",
    "name": "Kerapak Airstrip",
    "gps_code": "ID-0079",
    "freq": "",
    "Lat": 0.0939,
    "Lon": 111.9083,
    "Ele": 47.9
  },
  {
    "type": "small_airport",
    "name": "Kiwi Airstrip",
    "gps_code": "ID-0080",
    "freq": "",
    "Lat": -4.697841,
    "Lon": 140.722425,
    "Ele": 1603.2
  },
  {
    "type": "small_airport",
    "name": "Kobagma Airport",
    "gps_code": "ID-0081",
    "freq": "",
    "Lat": -3.666539,
    "Lon": 139.058758,
    "Ele": 973.8
  },
  {
    "type": "small_airport",
    "name": "Komopa Airstrip",
    "gps_code": "ID-0082",
    "freq": "",
    "Lat": -3.7998,
    "Lon": 136.4775,
    "Ele": 1774.5
  },
  {
    "type": "small_airport",
    "name": "Koropun Airstrip",
    "gps_code": "ID-0083",
    "freq": "",
    "Lat": -4.479226,
    "Lon": 139.649894,
    "Ele": 1798.3
  },
  {
    "type": "small_airport",
    "name": "Kuala Kurun Airport",
    "gps_code": "ID-0084",
    "freq": "",
    "Lat": -1.128903,
    "Lon": 113.873075,
    "Ele": 35.1
  },
  {
    "type": "small_airport",
    "name": "Kuala Randau Airstrip",
    "gps_code": "ID-0085",
    "freq": "",
    "Lat": -0.582399,
    "Lon": 110.472759,
    "Ele": 73.2
  },
  {
    "type": "small_airport",
    "name": "Kustera Airstrip",
    "gps_code": "ID-0086",
    "freq": "",
    "Lat": -2.746014,
    "Lon": 137.919206,
    "Ele": 106.7
  },
  {
    "type": "small_airport",
    "name": "Kwerba Airstrip",
    "gps_code": "ID-0087",
    "freq": "",
    "Lat": -2.643549,
    "Lon": 138.40894,
    "Ele": 75.3
  },
  {
    "type": "small_airport",
    "name": "Kwijawagi",
    "gps_code": "ID-0088",
    "freq": "",
    "Lat": -4.0256,
    "Lon": 138.2046,
    "Ele": 2831.0
  },
  {
    "type": "small_airport",
    "name": "Lake Holmes Airstrip",
    "gps_code": "ID-0089",
    "freq": "",
    "Lat": -2.472221,
    "Lon": 137.988365,
    "Ele": 396.2
  },
  {
    "type": "small_airport",
    "name": "Landikma Airstrip",
    "gps_code": "ID-0090",
    "freq": "",
    "Lat": -3.8212,
    "Lon": 139.2423,
    "Ele": 1019.6
  },
  {
    "type": "small_airport",
    "name": "Langda Airstrip",
    "gps_code": "ID-0091",
    "freq": "",
    "Lat": -4.6785,
    "Lon": 139.9745,
    "Ele": 1975.1
  },
  {
    "type": "small_airport",
    "name": "Lokok Airstrip",
    "gps_code": "ID-0092",
    "freq": "",
    "Lat": 1.02159,
    "Lon": 110.050738,
    "Ele": 565.4
  },
  {
    "type": "small_airport",
    "name": "Long Alango Airstrip",
    "gps_code": "ID-0093",
    "freq": "",
    "Lat": 2.9304,
    "Lon": 115.8512,
    "Ele": 393.8
  },
  {
    "type": "small_airport",
    "name": "Long Rungan",
    "gps_code": "ID-0094",
    "freq": "",
    "Lat": 3.5994,
    "Lon": 115.8418,
    "Ele": 877.8
  },
  {
    "type": "small_airport",
    "name": "Long Segar Airstrip",
    "gps_code": "ID-0095",
    "freq": "",
    "Lat": 0.7981,
    "Lon": 116.8157,
    "Ele": 36.6
  },
  {
    "type": "small_airport",
    "name": "Luban Airstrip",
    "gps_code": "ID-0096",
    "freq": "",
    "Lat": -4.213917,
    "Lon": 140.559755,
    "Ele": 256.0
  },
  {
    "type": "small_airport",
    "name": "Lumbis Airstrip",
    "gps_code": "ID-0097",
    "freq": "",
    "Lat": 4.3038,
    "Lon": 116.2175,
    "Ele": 175.3
  },
  {
    "type": "small_airport",
    "name": "Madya Raya Airstrip",
    "gps_code": "ID-0098",
    "freq": "",
    "Lat": -0.865,
    "Lon": 111.6637,
    "Ele": 115.8
  },
  {
    "type": "small_airport",
    "name": "Magoda Airstrip",
    "gps_code": "ID-0099",
    "freq": "",
    "Lat": -3.9906,
    "Lon": 135.8532,
    "Ele": 1603.2
  },
  {
    "type": "small_airport",
    "name": "Oklip Airstrip",
    "gps_code": "ID-0100",
    "freq": "",
    "Lat": -4.762095,
    "Lon": 140.780554,
    "Ele": 1920.2
  },
  {
    "type": "small_airport",
    "name": "Nalca Airstrip",
    "gps_code": "ID-0101",
    "freq": "",
    "Lat": -4.3636,
    "Lon": 139.8351,
    "Ele": 1600.2
  },
  {
    "type": "small_airport",
    "name": "Nanga Labang Airstrip",
    "gps_code": "ID-0102",
    "freq": "",
    "Lat": 0.228,
    "Lon": 111.65084,
    "Ele": 25.3
  },
  {
    "type": "small_airport",
    "name": "Nanga Mawong Airstrip",
    "gps_code": "ID-0103",
    "freq": "",
    "Lat": -0.4322,
    "Lon": 112.3271,
    "Ele": 87.2
  },
  {
    "type": "small_airport",
    "name": "Nanga Merakai Airstrip",
    "gps_code": "ID-0104",
    "freq": "",
    "Lat": 0.7024,
    "Lon": 111.5225,
    "Ele": 34.1
  },
  {
    "type": "small_airport",
    "name": "Nanga Nyabu Airstrip",
    "gps_code": "ID-0105",
    "freq": "",
    "Lat": 1.0152,
    "Lon": 112.714,
    "Ele": 44.5
  },
  {
    "type": "small_airport",
    "name": "Nanga Ruan Airstrip",
    "gps_code": "ID-0106",
    "freq": "",
    "Lat": 0.6283,
    "Lon": 113.1753,
    "Ele": 84.7
  },
  {
    "type": "small_airport",
    "name": "Nenei Airstrip",
    "gps_code": "ID-0107",
    "freq": "",
    "Lat": -1.492,
    "Lon": 133.9956,
    "Ele": 872.9
  },
  {
    "type": "small_airport",
    "name": "Nania Airstrip",
    "gps_code": "ID-0109",
    "freq": "",
    "Lat": -4.362913,
    "Lon": 139.30244,
    "Ele": 2151.9
  },
  {
    "type": "small_airport",
    "name": "Nipsan Airstrip",
    "gps_code": "ID-0110",
    "freq": "",
    "Lat": -4.116755,
    "Lon": 139.647303,
    "Ele": 1828.8
  },
  {
    "type": "small_airport",
    "name": "Okyap Airstrip",
    "gps_code": "ID-0111",
    "freq": "",
    "Lat": -4.743448,
    "Lon": 140.848267,
    "Ele": 1332.0
  },
  {
    "type": "small_airport",
    "name": "Omban Airstrip",
    "gps_code": "ID-0112",
    "freq": "",
    "Lat": -4.368741,
    "Lon": 140.392535,
    "Ele": 938.2
  },
  {
    "type": "small_airport",
    "name": "Onondowa/Rampi Airport",
    "gps_code": "ID-0113",
    "freq": "",
    "Lat": -2.125992,
    "Lon": 120.297659,
    "Ele": 984.2
  },
  {
    "type": "small_airport",
    "name": "Pagai Lumber Airstrip",
    "gps_code": "ID-0114",
    "freq": "",
    "Lat": -2.857831,
    "Lon": 100.214446,
    "Ele": 43.0
  },
  {
    "type": "small_airport",
    "name": "Pagai Airstrip",
    "gps_code": "ID-0115",
    "freq": "",
    "Lat": -3.5362,
    "Lon": 139.7826,
    "Ele": 93.0
  },
  {
    "type": "small_airport",
    "name": "Panggema/Hasan Airport",
    "gps_code": "ID-0116",
    "freq": "",
    "Lat": -4.135396,
    "Lon": 139.377151,
    "Ele": 1481.3
  },
  {
    "type": "small_airport",
    "name": "Papasena Airstrip",
    "gps_code": "ID-0117",
    "freq": "",
    "Lat": -2.915,
    "Lon": 138.5876,
    "Ele": 68.3
  },
  {
    "type": "small_airport",
    "name": "Pass Valley Airstrip",
    "gps_code": "ID-0118",
    "freq": "",
    "Lat": -3.85876,
    "Lon": 139.100268,
    "Ele": 1981.2
  },
  {
    "type": "small_airport",
    "name": "Piramid Airstrip",
    "gps_code": "ID-0119",
    "freq": "",
    "Lat": -3.901493,
    "Lon": 138.764276,
    "Ele": 1716.0
  },
  {
    "type": "small_airport",
    "name": "Pit River Airstrip",
    "gps_code": "ID-0120",
    "freq": "",
    "Lat": -3.9819,
    "Lon": 138.5338,
    "Ele": 2161.0
  },
  {
    "type": "small_airport",
    "name": "Pogapa Airstrip",
    "gps_code": "ID-0121",
    "freq": "122.400",
    "Lat": -3.752,
    "Lon": 136.8457,
    "Ele": 1969.0
  },
  {
    "type": "small_airport",
    "name": "Polimo Airstrip",
    "gps_code": "ID-0122",
    "freq": "",
    "Lat": -4.219223,
    "Lon": 139.034607,
    "Ele": 1691.6
  },
  {
    "type": "small_airport",
    "name": "Poga Airstrip",
    "gps_code": "ID-0123",
    "freq": "",
    "Lat": -3.801567,
    "Lon": 138.587449,
    "Ele": 2240.9
  },
  {
    "type": "small_airport",
    "name": "Prongkoli Airstrip",
    "gps_code": "ID-0124",
    "freq": "",
    "Lat": -4.188308,
    "Lon": 139.342232,
    "Ele": 1946.1
  },
  {
    "type": "small_airport",
    "name": "Puldamat Airstrip",
    "gps_code": "ID-0126",
    "freq": "",
    "Lat": -4.3196,
    "Lon": 139.8704,
    "Ele": 1661.2
  },
  {
    "type": "small_airport",
    "name": "Riam Sejawak Airstrip",
    "gps_code": "ID-0128",
    "freq": "",
    "Lat": 0.9717,
    "Lon": 111.0994,
    "Ele": 42.7
  },
  {
    "type": "small_airport",
    "name": "Ros Bori Airstrip",
    "gps_code": "ID-0129",
    "freq": "",
    "Lat": -1.6586,
    "Lon": 136.102,
    "Ele": 20.4
  },
  {
    "type": "small_airport",
    "name": "Samboka Airstrip",
    "gps_code": "ID-0130",
    "freq": "",
    "Lat": -4.836839,
    "Lon": 139.714615,
    "Ele": 170.7
  },
  {
    "type": "small_airport",
    "name": "Sape Airstrip",
    "gps_code": "ID-0131",
    "freq": "",
    "Lat": -4.7655,
    "Lon": 140.5054,
    "Ele": 2098.5
  },
  {
    "type": "small_airport",
    "name": "Sela Airstrip",
    "gps_code": "ID-0133",
    "freq": "",
    "Lat": -4.550661,
    "Lon": 139.734453,
    "Ele": 1994.9
  },
  {
    "type": "small_airport",
    "name": "Seradala Airstrip",
    "gps_code": "ID-0134",
    "freq": "",
    "Lat": -4.9797,
    "Lon": 139.9035,
    "Ele": 137.8
  },
  {
    "type": "small_airport",
    "name": "Serimbu Airstrip",
    "gps_code": "ID-0135",
    "freq": "",
    "Lat": 0.741,
    "Lon": 110.123,
    "Ele": 74.4
  },
  {
    "type": "small_airport",
    "name": "Serukam",
    "gps_code": "ID-0136",
    "freq": "",
    "Lat": 0.797,
    "Lon": 109.3317,
    "Ele": 57.9
  },
  {
    "type": "small_airport",
    "name": "Sikari Airstrip",
    "gps_code": "ID-0137",
    "freq": "",
    "Lat": -2.761904,
    "Lon": 138.386229,
    "Ele": 66.1
  },
  {
    "type": "small_airport",
    "name": "Silimo Airstrip",
    "gps_code": "ID-0138",
    "freq": "",
    "Lat": -4.466012,
    "Lon": 138.943062,
    "Ele": 1755.6
  },
  {
    "type": "small_airport",
    "name": "Syekh Hamzah Fansyuri Airport",
    "gps_code": "ID-0139",
    "freq": "",
    "Lat": 2.269614,
    "Lon": 97.967863,
    "Ele": 5.2
  },
  {
    "type": "small_airport",
    "name": "Siriwo Airstrip",
    "gps_code": "ID-0141",
    "freq": "",
    "Lat": -3.5388,
    "Lon": 135.948971,
    "Ele": 162.5
  },
  {
    "type": "small_airport",
    "name": "Soba Airstrip",
    "gps_code": "ID-0142",
    "freq": "",
    "Lat": -4.346147,
    "Lon": 139.178814,
    "Ele": 1866.9
  },
  {
    "type": "small_airport",
    "name": "Sumo Airstrip",
    "gps_code": "ID-0143",
    "freq": "",
    "Lat": -4.750469,
    "Lon": 139.353338,
    "Ele": 64.0
  },
  {
    "type": "small_airport",
    "name": "Suntamon Airport",
    "gps_code": "ID-0144",
    "freq": "",
    "Lat": -4.8083,
    "Lon": 140.1715,
    "Ele": 1414.3
  },
  {
    "type": "small_airport",
    "name": "Sungai Tontang Airstrip",
    "gps_code": "ID-0145",
    "freq": "",
    "Lat": -0.731052,
    "Lon": 110.376967,
    "Ele": 44.2
  },
  {
    "type": "small_airport",
    "name": "Suswa Airstrip [UNUSABLE]",
    "gps_code": "ID-0146",
    "freq": "",
    "Lat": -0.942,
    "Lon": 132.298,
    "Ele": 177.7
  },
  {
    "type": "small_airport",
    "name": "Synopi Airstrip",
    "gps_code": "ID-0147",
    "freq": "",
    "Lat": -0.842054,
    "Lon": 132.926191,
    "Ele": 502.3
  },
  {
    "type": "small_airport",
    "name": "Taige Airstrip",
    "gps_code": "ID-0148",
    "freq": "",
    "Lat": -1.3105,
    "Lon": 133.8517,
    "Ele": 1904.4
  },
  {
    "type": "small_airport",
    "name": "Taiyeve Airstrip",
    "gps_code": "ID-0149",
    "freq": "",
    "Lat": -3.2331,
    "Lon": 138.4458,
    "Ele": 53.6
  },
  {
    "type": "small_airport",
    "name": "Takar Airstrip",
    "gps_code": "ID-0150",
    "freq": "",
    "Lat": -2.0375,
    "Lon": 139.113,
    "Ele": 16.8
  },
  {
    "type": "small_airport",
    "name": "Tangma Airstrip",
    "gps_code": "ID-0151",
    "freq": "",
    "Lat": -4.25981,
    "Lon": 139.046631,
    "Ele": 1786.1
  },
  {
    "type": "small_airport",
    "name": "Tanjung Maju Airstrip",
    "gps_code": "ID-0152",
    "freq": "",
    "Lat": -0.7102,
    "Lon": 110.4991,
    "Ele": 53.3
  },
  {
    "type": "small_airport",
    "name": "Tayayi Airstrip",
    "gps_code": "ID-0153",
    "freq": "",
    "Lat": -3.0447,
    "Lon": 137.6217,
    "Ele": 75.0
  },
  {
    "type": "small_airport",
    "name": "Testega Airstrip",
    "gps_code": "ID-0154",
    "freq": "",
    "Lat": -1.378076,
    "Lon": 133.594204,
    "Ele": 1143.0
  },
  {
    "type": "small_airport",
    "name": "Timepa Airstrip",
    "gps_code": "ID-0155",
    "freq": "",
    "Lat": -4.0047,
    "Lon": 135.7872,
    "Ele": 1505.7
  },
  {
    "type": "small_airport",
    "name": "Turmo Airstrip",
    "gps_code": "ID-0156",
    "freq": "",
    "Lat": -3.273581,
    "Lon": 137.558,
    "Ele": 87.2
  },
  {
    "type": "small_airport",
    "name": "Waff Airstrip",
    "gps_code": "ID-0157",
    "freq": "",
    "Lat": -2.3307,
    "Lon": 138.7489,
    "Ele": 77.7
  },
  {
    "type": "small_airport",
    "name": "Walerek Airstrip",
    "gps_code": "ID-0158",
    "freq": "",
    "Lat": -3.993361,
    "Lon": 139.491977,
    "Ele": 737.6
  },
  {
    "type": "small_airport",
    "name": "Walma Airstrip",
    "gps_code": "ID-0159",
    "freq": "",
    "Lat": -4.217782,
    "Lon": 139.393555,
    "Ele": 1950.7
  },
  {
    "type": "small_airport",
    "name": "Wandama Airstrip",
    "gps_code": "ID-0160",
    "freq": "",
    "Lat": -4.5472,
    "Lon": 138.55225,
    "Ele": 232.0
  },
  {
    "type": "small_airport",
    "name": "Wanggemalu Airstrip",
    "gps_code": "ID-0161",
    "freq": "",
    "Lat": -5.4974,
    "Lon": 139.9783,
    "Ele": 66.8
  },
  {
    "type": "small_airport",
    "name": "Wolo Airstrip",
    "gps_code": "ID-0162",
    "freq": "",
    "Lat": -3.8505,
    "Lon": 138.8603,
    "Ele": 1789.2
  },
  {
    "type": "small_airport",
    "name": "Wunin Airstrip",
    "gps_code": "ID-0163",
    "freq": "",
    "Lat": -3.650771,
    "Lon": 138.554313,
    "Ele": 1641.3
  },
  {
    "type": "small_airport",
    "name": "Yaniruma Airstrip",
    "gps_code": "ID-0164",
    "freq": "",
    "Lat": -5.4206,
    "Lon": 139.8197,
    "Ele": 47.2
  },
  {
    "type": "small_airport",
    "name": "Yapil Airstrip",
    "gps_code": "ID-0165",
    "freq": "",
    "Lat": -4.540447,
    "Lon": 140.565691,
    "Ele": 1362.5
  },
  {
    "type": "small_airport",
    "name": "Yigi Airstrip",
    "gps_code": "ID-0166",
    "freq": "",
    "Lat": -4.228468,
    "Lon": 138.393778,
    "Ele": 1859.3
  },
  {
    "type": "small_airport",
    "name": "Yogosem Airstrip",
    "gps_code": "ID-0167",
    "freq": "",
    "Lat": -4.247695,
    "Lon": 139.168977,
    "Ele": 2499.4
  },
  {
    "type": "small_airport",
    "name": "Alama Airstrip",
    "gps_code": "ID-0168",
    "freq": "",
    "Lat": -4.2631,
    "Lon": 137.892387,
    "Ele": 1021.1
  },
  {
    "type": "small_airport",
    "name": "Aideralma Airstrip",
    "gps_code": "ID-0171",
    "freq": "",
    "Lat": -4.3341,
    "Lon": 137.8316,
    "Ele": 832.1
  },
  {
    "type": "small_airport",
    "name": "Enggano Airport",
    "gps_code": "ID-0172",
    "freq": "",
    "Lat": -5.305621,
    "Lon": 102.189546,
    "Ele": 11.0
  },
  {
    "type": "small_airport",
    "name": "Apouwo Airstrip",
    "gps_code": "ID-0173",
    "freq": "",
    "Lat": -4.063248,
    "Lon": 135.560018,
    "Ele": 1600.2
  },
  {
    "type": "small_airport",
    "name": "Aurimi Wzil Airstrip",
    "gps_code": "ID-0174",
    "freq": "",
    "Lat": -2.182027,
    "Lon": 138.434418,
    "Ele": 88.4
  },
  {
    "type": "small_airport",
    "name": "Bareri Airport",
    "gps_code": "ID-0175",
    "freq": "",
    "Lat": -2.981793,
    "Lon": 137.782715,
    "Ele": 91.4
  },
  {
    "type": "small_airport",
    "name": "Bari Airport",
    "gps_code": "ID-0176",
    "freq": "122.200",
    "Lat": -3.959166,
    "Lon": 139.901563,
    "Ele": 506.0
  },
  {
    "type": "small_airport",
    "name": "Basiem Airport",
    "gps_code": "ID-0177",
    "freq": "",
    "Lat": -6.058573,
    "Lon": 138.383542,
    "Ele": 14.9
  },
  {
    "type": "small_airport",
    "name": "Awimbon Airstrip",
    "gps_code": "ID-0178",
    "freq": "",
    "Lat": -5.165884,
    "Lon": 140.381568,
    "Ele": 150.0
  },
  {
    "type": "small_airport",
    "name": "Anik Airstrip",
    "gps_code": "ID-0179",
    "freq": "",
    "Lat": 0.537465,
    "Lon": 109.742062,
    "Ele": 42.4
  },
  {
    "type": "small_airport",
    "name": "Yaosakor Airstrip",
    "gps_code": "ID-0180",
    "freq": "",
    "Lat": -5.603899,
    "Lon": 138.46525,
    "Ele": 3.0
  },
  {
    "type": "small_airport",
    "name": "Weda Bay Airport",
    "gps_code": "ID-0181",
    "freq": "",
    "Lat": 0.468328,
    "Lon": 127.945101,
    "Ele": 3.4
  },
  {
    "type": "small_airport",
    "name": "Salakanagara Tanjun Lesung Airport",
    "gps_code": "ID-0186",
    "freq": "",
    "Lat": -6.49155,
    "Lon": 105.66967,
    "Ele": 6.1
  },
  {
    "type": "small_airport",
    "name": "Sorake Airport",
    "gps_code": "ID-0190",
    "freq": "",
    "Lat": 0.58884,
    "Lon": 97.71899,
    "Ele": 38.1
  },
  {
    "type": "small_airport",
    "name": "Tambling Airport",
    "gps_code": "ID-0191",
    "freq": "",
    "Lat": -5.92113,
    "Lon": 104.55816,
    "Ele": 11.0
  },
  {
    "type": "small_airport",
    "name": "Kubibkop Airport",
    "gps_code": "ID-0193",
    "freq": "",
    "Lat": -4.79436,
    "Lon": 140.69447,
    "Ele": 2276.9
  },
  {
    "type": "small_airport",
    "name": "Korowai Batu Danowage Airport",
    "gps_code": "ID-0194",
    "freq": "",
    "Lat": -5.2127,
    "Lon": 140.017582,
    "Ele": 103.6
  },
  {
    "type": "small_airport",
    "name": "Molding Airstrip",
    "gps_code": "ID-0195",
    "freq": "",
    "Lat": -4.891004,
    "Lon": 140.74213,
    "Ele": 1249.7
  },
  {
    "type": "small_airport",
    "name": "Tarup Airstrip",
    "gps_code": "ID-0196",
    "freq": "",
    "Lat": -5.097671,
    "Lon": 140.821627,
    "Ele": 609.6
  },
  {
    "type": "small_airport",
    "name": "Tinibil Airstrip",
    "gps_code": "ID-0197",
    "freq": "",
    "Lat": -4.824475,
    "Lon": 140.87378,
    "Ele": 1645.9
  },
  {
    "type": "small_airport",
    "name": "Denom Airstrip",
    "gps_code": "ID-0198",
    "freq": "",
    "Lat": -5.144915,
    "Lon": 140.967065,
    "Ele": 670.6
  },
  {
    "type": "small_airport",
    "name": "Okbab Airstrip",
    "gps_code": "ID-0199",
    "freq": "",
    "Lat": -4.586015,
    "Lon": 140.499844,
    "Ele": 1828.8
  },
  {
    "type": "small_airport",
    "name": "Alemson Airstrip",
    "gps_code": "ID-0200",
    "freq": "",
    "Lat": -4.816571,
    "Lon": 140.222819,
    "Ele": 1585.0
  },
  {
    "type": "small_airport",
    "name": "Kotyobakon Airstrip",
    "gps_code": "ID-0201",
    "freq": "",
    "Lat": -4.638376,
    "Lon": 140.654907,
    "Ele": 1554.5
  },
  {
    "type": "small_airport",
    "name": "Mipol Airstrip",
    "gps_code": "ID-0202",
    "freq": "",
    "Lat": -4.605771,
    "Lon": 140.634806,
    "Ele": 1463.0
  },
  {
    "type": "small_airport",
    "name": "Binban Airstrip",
    "gps_code": "ID-0203",
    "freq": "",
    "Lat": -4.585309,
    "Lon": 140.533962,
    "Ele": 1585.0
  },
  {
    "type": "small_airport",
    "name": "Kaklup Airstrip",
    "gps_code": "ID-0204",
    "freq": "",
    "Lat": -4.620771,
    "Lon": 140.531688,
    "Ele": 1981.2
  },
  {
    "type": "small_airport",
    "name": "Maksum Airstrip",
    "gps_code": "ID-0205",
    "freq": "",
    "Lat": -4.58066,
    "Lon": 140.515995,
    "Ele": 1676.4
  },
  {
    "type": "small_airport",
    "name": "Maksum Airstrip",
    "gps_code": "ID-0206",
    "freq": "",
    "Lat": -4.632613,
    "Lon": 140.497466,
    "Ele": 2103.1
  },
  {
    "type": "small_airport",
    "name": "Pedam Airstrip",
    "gps_code": "ID-0207",
    "freq": "",
    "Lat": -4.539485,
    "Lon": 140.462018,
    "Ele": 1950.7
  },
  {
    "type": "small_airport",
    "name": "Dumpasik Airstrip",
    "gps_code": "ID-0208",
    "freq": "",
    "Lat": -4.455194,
    "Lon": 140.508871,
    "Ele": 1280.2
  },
  {
    "type": "small_airport",
    "name": "Bordamban Airport",
    "gps_code": "ID-0209",
    "freq": "",
    "Lat": -4.439924,
    "Lon": 140.484527,
    "Ele": 914.4
  },
  {
    "type": "small_airport",
    "name": "Kirimu Airstrip",
    "gps_code": "ID-0210",
    "freq": "",
    "Lat": -4.464786,
    "Lon": 140.393016,
    "Ele": 1950.7
  },
  {
    "type": "small_airport",
    "name": "Hangmata Airstrip",
    "gps_code": "ID-0211",
    "freq": "",
    "Lat": -4.49226,
    "Lon": 140.657322,
    "Ele": 1005.8
  },
  {
    "type": "small_airport",
    "name": "Blangkejeren Airport",
    "gps_code": "ID-0214",
    "freq": "",
    "Lat": 3.94548,
    "Lon": 97.35968,
    "Ele": 0.0
  },
  {
    "type": "small_airport",
    "name": "Bobkamu Airstrip",
    "gps_code": "ID-0215",
    "freq": "",
    "Lat": -4.463818,
    "Lon": 140.262414,
    "Ele": 1428.0
  },
  {
    "type": "small_airport",
    "name": "Weime Airstrip",
    "gps_code": "ID-0216",
    "freq": "",
    "Lat": -4.354141,
    "Lon": 140.260381,
    "Ele": 1489.9
  },
  {
    "type": "small_airport",
    "name": "Tumdungbon Airstrip",
    "gps_code": "ID-0217",
    "freq": "",
    "Lat": -5.179406,
    "Lon": 140.520099,
    "Ele": 0.0
  },
  {
    "type": "small_airport",
    "name": "Kawor Airstrip",
    "gps_code": "ID-0218",
    "freq": "",
    "Lat": -5.232712,
    "Lon": 140.519992,
    "Ele": 143.0
  },
  {
    "type": "small_airport",
    "name": "Dewok Airport",
    "gps_code": "ID-0219",
    "freq": "",
    "Lat": -5.278326,
    "Lon": 140.681963,
    "Ele": 0.0
  },
  {
    "type": "small_airport",
    "name": "Manggelum Airport",
    "gps_code": "ID-0220",
    "freq": "",
    "Lat": -5.416371,
    "Lon": 140.436231,
    "Ele": 66.1
  },
  {
    "type": "small_airport",
    "name": "Begowre Airstrip",
    "gps_code": "ID-0222",
    "freq": "",
    "Lat": -2.982106,
    "Lon": 140.925279,
    "Ele": 109.7
  },
  {
    "type": "small_airport",
    "name": "Ideduna Airstrip",
    "gps_code": "ID-0223",
    "freq": "",
    "Lat": -3.961954,
    "Lon": 135.482025,
    "Ele": 1829.1
  },
  {
    "type": "small_airport",
    "name": "Bias Airstrip",
    "gps_code": "ID-0224",
    "freq": "",
    "Lat": -3.999569,
    "Lon": 140.82041,
    "Ele": 121.0
  },
  {
    "type": "small_airport",
    "name": "Walibaru Airstrip",
    "gps_code": "ID-0225",
    "freq": "",
    "Lat": -5.39973,
    "Lon": 140.198652,
    "Ele": 46.9
  },
  {
    "type": "small_airport",
    "name": "Taria Airstrip",
    "gps_code": "ID-0226",
    "freq": "",
    "Lat": -3.410527,
    "Lon": 138.895308,
    "Ele": 106.1
  },
  {
    "type": "small_airport",
    "name": "Dadou Airstrip",
    "gps_code": "ID-0227",
    "freq": "",
    "Lat": -3.686435,
    "Lon": 136.063217,
    "Ele": 1426.2
  },
  {
    "type": "small_airport",
    "name": "Daboto Airstrip",
    "gps_code": "ID-0228",
    "freq": "",
    "Lat": -3.295335,
    "Lon": 136.408213,
    "Ele": 784.9
  },
  {
    "type": "small_airport",
    "name": "Zotadi Airstrip",
    "gps_code": "ID-0229",
    "freq": "",
    "Lat": -3.67449,
    "Lon": 136.56833,
    "Ele": 1572.8
  },
  {
    "type": "small_airport",
    "name": "Pagamba Airstrip",
    "gps_code": "ID-0230",
    "freq": "",
    "Lat": -3.64307,
    "Lon": 136.67854,
    "Ele": 1734.3
  },
  {
    "type": "small_airport",
    "name": "Supugi Airstrip",
    "gps_code": "ID-0233",
    "freq": "",
    "Lat": -4.328303,
    "Lon": 139.098995,
    "Ele": 0.0
  },
  {
    "type": "small_airport",
    "name": "Grati Airport",
    "gps_code": "ID-0237",
    "freq": "",
    "Lat": -7.67253,
    "Lon": 113.03682,
    "Ele": 57.0
  },
  {
    "type": "small_airport",
    "name": "Citeurup Paraglider Airport",
    "gps_code": "ID-0242",
    "freq": "",
    "Lat": -6.50814,
    "Lon": 106.87836,
    "Ele": 0.0
  },
  {
    "type": "small_airport",
    "name": "Lido Airstrip",
    "gps_code": "ID-0243",
    "freq": "",
    "Lat": -6.75333,
    "Lon": 106.81171,
    "Ele": 0.0
  },
  {
    "type": "small_airport",
    "name": "Cikembar Airport",
    "gps_code": "ID-0244",
    "freq": "",
    "Lat": -6.96924,
    "Lon": 106.78866,
    "Ele": 0.0
  },
  {
    "type": "small_airport",
    "name": "Asua Airport",
    "gps_code": "ID-0246",
    "freq": "",
    "Lat": -4.686881,
    "Lon": 140.789845,
    "Ele": 0.0
  },
  {
    "type": "small_airport",
    "name": "Mewengde Airstrip",
    "gps_code": "ID-0247",
    "freq": "",
    "Lat": -4.820969,
    "Lon": 140.237545,
    "Ele": 0.0
  },
  {
    "type": "small_airport",
    "name": "Eragayam Airport",
    "gps_code": "ID-0248",
    "freq": "",
    "Lat": -3.733891,
    "Lon": 138.747881,
    "Ele": 0.0
  },
  {
    "type": "small_airport",
    "name": "Mamit Airstrip",
    "gps_code": "ID-0249",
    "freq": "",
    "Lat": -3.589005,
    "Lon": 138.396857,
    "Ele": 1440.5
  },
  {
    "type": "small_airport",
    "name": "Yobesorum Airstrip",
    "gps_code": "ID-0250",
    "freq": "",
    "Lat": -4.285211,
    "Lon": 140.026433,
    "Ele": 1040.6
  },
  {
    "type": "small_airport",
    "name": "Bolakna Airstrip",
    "gps_code": "ID-0251",
    "freq": "",
    "Lat": -4.23424,
    "Lon": 140.000619,
    "Ele": 1047.0
  },
  {
    "type": "small_airport",
    "name": "Baya Biru Airport",
    "gps_code": "ID-0255",
    "freq": "",
    "Lat": -3.618606,
    "Lon": 136.267033,
    "Ele": 822.0
  },
  {
    "type": "small_airport",
    "name": "Supleyu Airstrip",
    "gps_code": "ID-0256",
    "freq": "",
    "Lat": -4.43285,
    "Lon": 140.16682,
    "Ele": 1709.9
  },
  {
    "type": "small_airport",
    "name": "Tanime Airstrip",
    "gps_code": "ID-0257",
    "freq": "",
    "Lat": -4.45145,
    "Lon": 140.13042,
    "Ele": 1581.0
  },
  {
    "type": "small_airport",
    "name": "Suaka Airstrip",
    "gps_code": "ID-0258",
    "freq": "",
    "Lat": -4.464786,
    "Lon": 140.099008,
    "Ele": 1684.0
  },
  {
    "type": "small_airport",
    "name": "Eipomek Airstrip",
    "gps_code": "ID-0259",
    "freq": "",
    "Lat": -4.45584,
    "Lon": 140.02531,
    "Ele": 1876.0
  },
  {
    "type": "small_airport",
    "name": "Famek Airstrip",
    "gps_code": "ID-0260",
    "freq": "",
    "Lat": -4.425722,
    "Lon": 140.021954,
    "Ele": 1891.0
  },
  {
    "type": "small_airport",
    "name": "Soya Airstrip",
    "gps_code": "ID-0261",
    "freq": "",
    "Lat": -4.37183,
    "Lon": 139.91673,
    "Ele": 2044.9
  },
  {
    "type": "small_airport",
    "name": "Aksal Airstrip",
    "gps_code": "ID-0262",
    "freq": "",
    "Lat": -4.34395,
    "Lon": 139.88754,
    "Ele": 1638.0
  },
  {
    "type": "small_airport",
    "name": "Kalbok Airstrip",
    "gps_code": "ID-0263",
    "freq": "",
    "Lat": -4.30181,
    "Lon": 139.80474,
    "Ele": 1870.9
  },
  {
    "type": "small_airport",
    "name": "Kono Airstrip",
    "gps_code": "ID-0264",
    "freq": "",
    "Lat": -4.275717,
    "Lon": 139.735893,
    "Ele": 1962.0
  },
  {
    "type": "small_airport",
    "name": "Trison Airstrip",
    "gps_code": "ID-0265",
    "freq": "",
    "Lat": -4.26309,
    "Lon": 139.68456,
    "Ele": 2414.0
  },
  {
    "type": "small_airport",
    "name": "Muhumu Airstrip",
    "gps_code": "ID-0266",
    "freq": "",
    "Lat": -4.21977,
    "Lon": 139.41273,
    "Ele": 1865.1
  },
  {
    "type": "small_airport",
    "name": "Waniyok Airport",
    "gps_code": "ID-0267",
    "freq": "",
    "Lat": -4.21672,
    "Lon": 139.42436,
    "Ele": 1962.9
  },
  {
    "type": "small_airport",
    "name": "Asotipo Airstrip",
    "gps_code": "ID-0268",
    "freq": "",
    "Lat": -4.17695,
    "Lon": 138.99303,
    "Ele": 1761.1
  },
  {
    "type": "small_airport",
    "name": "Basir Airstrip",
    "gps_code": "ID-0269",
    "freq": "",
    "Lat": -4.372814,
    "Lon": 140.69684,
    "Ele": 328.9
  },
  {
    "type": "small_airport",
    "name": "Milki Airstrip",
    "gps_code": "ID-0270",
    "freq": "",
    "Lat": -4.097372,
    "Lon": 140.711331,
    "Ele": 306.0
  },
  {
    "type": "small_airport",
    "name": "Dulis Airstrip",
    "gps_code": "ID-0271",
    "freq": "",
    "Lat": -4.077257,
    "Lon": 140.661553,
    "Ele": 262.1
  },
  {
    "type": "small_airport",
    "name": "Marimoi Airport",
    "gps_code": "ID-0273",
    "freq": "131.300",
    "Lat": 1.101312,
    "Lon": 127.702467,
    "Ele": 34.7
  },
  {
    "type": "large_airport",
    "name": "Dhoho International Airport",
    "gps_code": "ID-0277",
    "freq": "",
    "Lat": -7.750278,
    "Lon": 111.947222,
    "Ele": 115.8
  },
  {
    "type": "small_airport",
    "name": "Yabirik Airstripe",
    "gps_code": "ID-0278",
    "freq": "",
    "Lat": -4.455186,
    "Lon": 138.823079,
    "Ele": 1874.8
  },
  {
    "type": "small_airport",
    "name": "Helariki Airstrip",
    "gps_code": "ID-0279",
    "freq": "",
    "Lat": -4.176059,
    "Lon": 139.439353,
    "Ele": 1493.5
  },
  {
    "type": "small_airport",
    "name": "Samenage Airstrip",
    "gps_code": "ID-0280",
    "freq": "",
    "Lat": -4.395446,
    "Lon": 139.030167,
    "Ele": 2164.1
  },
  {
    "type": "small_airport",
    "name": "Wakbisik Airstrip",
    "gps_code": "ID-0281",
    "freq": "",
    "Lat": -4.349896,
    "Lon": 139.211615,
    "Ele": 2252.5
  },
  {
    "type": "small_airport",
    "name": "Owitlep Airstrip",
    "gps_code": "ID-0282",
    "freq": "",
    "Lat": -4.314543,
    "Lon": 139.329624,
    "Ele": 2444.5
  },
  {
    "type": "small_airport",
    "name": "Pusako Anak Nagariu Airport",
    "gps_code": "ID-0284",
    "freq": "",
    "Lat": 0.076713,
    "Lon": 99.783846,
    "Ele": 23.2
  },
  {
    "type": "small_airport",
    "name": "Tempuling Airport",
    "gps_code": "ID-0285",
    "freq": "",
    "Lat": -0.427165,
    "Lon": 102.996126,
    "Ele": 7.0
  },
  {
    "type": "small_airport",
    "name": "Siboru Airport",
    "gps_code": "ID-0288",
    "freq": "",
    "Lat": -2.928056,
    "Lon": 132.089447,
    "Ele": 123.7
  },
  {
    "type": "small_airport",
    "name": "Singkawang Airport",
    "gps_code": "ID-0290",
    "freq": "",
    "Lat": 0.789936,
    "Lon": 108.960395,
    "Ele": 16.8
  },
  {
    "type": "small_airport",
    "name": "Bela Airstrip",
    "gps_code": "ID-0292",
    "freq": "",
    "Lat": -4.250278,
    "Lon": 137.850278,
    "Ele": 0.0
  },
  {
    "type": "small_airport",
    "name": "Sungai Nusa Airstrip",
    "gps_code": "ID-0295",
    "freq": "",
    "Lat": -2.09842,
    "Lon": 112.2532,
    "Ele": 0.0
  },
  {
    "type": "small_airport",
    "name": "Kantor Besar Lengadang Estate Airstrip",
    "gps_code": "ID-0296",
    "freq": "",
    "Lat": -2.2618,
    "Lon": 112.11646,
    "Ele": 0.0
  },
  {
    "type": "small_airport",
    "name": "Nahiyang Estate Airstrip",
    "gps_code": "ID-0297",
    "freq": "",
    "Lat": -2.26711,
    "Lon": 112.19835,
    "Ele": 0.0
  },
  {
    "type": "small_airport",
    "name": "Batu Manangis Airport",
    "gps_code": "ID-0298",
    "freq": "",
    "Lat": -2.15009,
    "Lon": 112.26928,
    "Ele": 47.9
  },
  {
    "type": "small_airport",
    "name": "Tembelina Airstrip",
    "gps_code": "ID-0299",
    "freq": "",
    "Lat": -1.7484,
    "Lon": 110.47658,
    "Ele": 0.0
  },
  {
    "type": "small_airport",
    "name": "Manis Mata Airstrip",
    "gps_code": "ID-0300",
    "freq": "",
    "Lat": -2.46441,
    "Lon": 110.96529,
    "Ele": 0.0
  },
  {
    "type": "small_airport",
    "name": "Mbugulo Airstrip",
    "gps_code": "ID-0303",
    "freq": "",
    "Lat": -3.70788,
    "Lon": 136.74285,
    "Ele": 2037.0
  },
  {
    "type": "small_airport",
    "name": "Jati Papak Airstrip",
    "gps_code": "ID-0317",
    "freq": "",
    "Lat": -8.54091,
    "Lon": 114.3755,
    "Ele": 11.9
  },
  {
    "type": "small_airport",
    "name": "Yuruf Airport [UNUSABLE]",
    "gps_code": "ID-0324",
    "freq": "",
    "Lat": -3.628919,
    "Lon": 140.953689,
    "Ele": 562.1
  },
  {
    "type": "medium_airport",
    "name": "Old Nabire Airport",
    "gps_code": "ID-0339",
    "freq": "558.000",
    "Lat": -3.368586,
    "Lon": 135.496702,
    "Ele": 6.1
  },
  {
    "type": "medium_airport",
    "name": "Tabing Airport",
    "gps_code": "ID-0340",
    "freq": "124.000",
    "Lat": -0.874989,
    "Lon": 100.351997,
    "Ele": 2.7
  },
  {
    "type": "medium_airport",
    "name": "Susilo Airport",
    "gps_code": "ID-0341",
    "freq": "130.100",
    "Lat": 0.063851,
    "Lon": 111.473572,
    "Ele": 29.9
  },
  {
    "type": "small_airport",
    "name": "Helvetia Airport",
    "gps_code": "ID-0342",
    "freq": "",
    "Lat": 3.68306,
    "Lon": 98.644203,
    "Ele": 14.9
  },
  {
    "type": "small_airport",
    "name": "Kota Mobagu/Mopait Airport",
    "gps_code": "ID-0343",
    "freq": "",
    "Lat": 0.686111,
    "Lon": 124.273611,
    "Ele": 178.0
  },
  {
    "type": "small_airport",
    "name": "Tebing Tinggi Airport",
    "gps_code": "ID-0345",
    "freq": "",
    "Lat": 3.366667,
    "Lon": 99.116669,
    "Ele": 21.0
  },
  {
    "type": "small_airport",
    "name": "Sumbawa Barat Airport",
    "gps_code": "ID-0351",
    "freq": "",
    "Lat": -8.99519,
    "Lon": 116.7444,
    "Ele": 10.1
  },
  {
    "type": "small_airport",
    "name": "Bukit Mulia Airport",
    "gps_code": "ID-0352",
    "freq": "",
    "Lat": -3.79107,
    "Lon": 115.29557,
    "Ele": 25.0
  },
  {
    "type": "small_airport",
    "name": "Kintap Airport",
    "gps_code": "ID-0353",
    "freq": "",
    "Lat": -3.8244,
    "Lon": 115.1825,
    "Ele": 20.1
  },
  {
    "type": "small_airport",
    "name": "Tomboki Airstrip",
    "gps_code": "ID-0359",
    "freq": "",
    "Lat": -4.2295,
    "Lon": 139.45225,
    "Ele": 1998.9
  },
  {
    "type": "small_airport",
    "name": "Nisikni Airstrip",
    "gps_code": "ID-0360",
    "freq": "",
    "Lat": -4.24745,
    "Lon": 139.47418,
    "Ele": 2286.9
  },
  {
    "type": "small_airport",
    "name": "Menou Airstrip",
    "gps_code": "ID-0361",
    "freq": "",
    "Lat": -3.86487,
    "Lon": 135.51802,
    "Ele": 1445.1
  },
  {
    "type": "small_airport",
    "name": "Apogomakida Airstrip",
    "gps_code": "ID-0362",
    "freq": "",
    "Lat": -4.00453,
    "Lon": 135.49515,
    "Ele": 1825.1
  },
  {
    "type": "small_airport",
    "name": "Uetangko Airstrip",
    "gps_code": "ID-0364",
    "freq": "",
    "Lat": -1.283333,
    "Lon": 121.8,
    "Ele": 309.1
  },
  {
    "type": "small_airport",
    "name": "Wari Airport",
    "gps_code": "ID-0369",
    "freq": "",
    "Lat": -3.294914,
    "Lon": 138.462961,
    "Ele": 68.9
  },
  {
    "type": "small_airport",
    "name": "Balinggama Airstrip",
    "gps_code": "ID-0370",
    "freq": "",
    "Lat": -4.348044,
    "Lon": 139.319022,
    "Ele": 2258.9
  },
  {
    "type": "small_airport",
    "name": "Kweapbel Airstrip",
    "gps_code": "ID-0371",
    "freq": "",
    "Lat": -4.380903,
    "Lon": 138.684517,
    "Ele": 2208.9
  },
  {
    "type": "small_airport",
    "name": "Gingginem Airstrip",
    "gps_code": "ID-0372",
    "freq": "",
    "Lat": -4.41147,
    "Lon": 138.6815,
    "Ele": 1677.6
  },
  {
    "type": "small_airport",
    "name": "Bikgunulingge Airstrip",
    "gps_code": "ID-0373",
    "freq": "",
    "Lat": -4.431974,
    "Lon": 138.666689,
    "Ele": 2013.2
  },
  {
    "type": "small_airport",
    "name": "Bina Airstrip",
    "gps_code": "ID-0374",
    "freq": "",
    "Lat": -3.706185,
    "Lon": 137.728514,
    "Ele": 1604.8
  },
  {
    "type": "small_airport",
    "name": "Ipdeheik Airstrip",
    "gps_code": "ID-0375",
    "freq": "",
    "Lat": -4.377306,
    "Lon": 139.319633,
    "Ele": 2407.0
  },
  {
    "type": "small_airport",
    "name": "Eyub Airstrip",
    "gps_code": "ID-0376",
    "freq": "",
    "Lat": -4.534076,
    "Lon": 139.766729,
    "Ele": 2057.7
  },
  {
    "type": "small_airport",
    "name": "Paima Airstrip",
    "gps_code": "ID-0377",
    "freq": "",
    "Lat": -4.456555,
    "Lon": 139.159859,
    "Ele": 1682.2
  },
  {
    "type": "small_airport",
    "name": "Amuma Airstrip",
    "gps_code": "ID-0378",
    "freq": "",
    "Lat": -4.473639,
    "Lon": 138.986646,
    "Ele": 1767.2
  },
  {
    "type": "small_airport",
    "name": "Lolat Airport",
    "gps_code": "ID-0379",
    "freq": "",
    "Lat": -4.487786,
    "Lon": 139.438915,
    "Ele": 1940.4
  },
  {
    "type": "small_airport",
    "name": "Aniek Airstrip",
    "gps_code": "ID-0380",
    "freq": "",
    "Lat": -4.441464,
    "Lon": 139.309477,
    "Ele": 1724.9
  },
  {
    "type": "small_airport",
    "name": "Molof Airstrip",
    "gps_code": "ID-0381",
    "freq": "",
    "Lat": -3.41504,
    "Lon": 140.551965,
    "Ele": 199.0
  },
  {
    "type": "small_airport",
    "name": "Wetar Island Airport",
    "gps_code": "ID-0382",
    "freq": "",
    "Lat": -7.692954,
    "Lon": 126.305672,
    "Ele": 12.5
  },
  {
    "type": "small_airport",
    "name": "Langsa Airstrip",
    "gps_code": "ID-0383",
    "freq": "",
    "Lat": 4.530669,
    "Lon": 98.024762,
    "Ele": 3.0
  },
  {
    "type": "small_airport",
    "name": "Apalapsili Airport",
    "gps_code": "ID-AAS",
    "freq": "",
    "Lat": -3.882495,
    "Lon": 139.310932,
    "Ele": 944.9
  },
  {
    "type": "small_airport",
    "name": "Anggi Airport",
    "gps_code": "ID-AGD",
    "freq": "",
    "Lat": -1.3858,
    "Lon": 133.8737,
    "Ele": 2025.1
  },
  {
    "type": "small_airport",
    "name": "Mina Wanam Airport",
    "gps_code": "ID-AHI",
    "freq": "",
    "Lat": -7.540726,
    "Lon": 139.110916,
    "Ele": 6.7
  },
  {
    "type": "small_airport",
    "name": "Astra Ksetra Airport",
    "gps_code": "ID-AKQ",
    "freq": "",
    "Lat": -4.611588,
    "Lon": 105.231968,
    "Ele": 30.2
  },
  {
    "type": "small_airport",
    "name": "Boalang Airport",
    "gps_code": "ID-BJG",
    "freq": "",
    "Lat": -0.972896,
    "Lon": 122.144997,
    "Ele": 44.5
  },
  {
    "type": "small_airport",
    "name": "Elelim Airport",
    "gps_code": "ID-ELR",
    "freq": "",
    "Lat": -3.785922,
    "Lon": 139.384497,
    "Ele": 454.2
  },
  {
    "type": "small_airport",
    "name": "Ewer Asmat Airport",
    "gps_code": "ID-EWE",
    "freq": "",
    "Lat": -5.496185,
    "Lon": 138.078361,
    "Ele": 8.2
  },
  {
    "type": "small_airport",
    "name": "Gag Island Airport",
    "gps_code": "ID-GAV",
    "freq": "",
    "Lat": -0.400556,
    "Lon": 129.895004,
    "Ele": 0.3
  },
  {
    "type": "small_airport",
    "name": "Ilu Airport",
    "gps_code": "ID-IUL",
    "freq": "",
    "Lat": -3.7051,
    "Lon": 138.2002,
    "Ele": 1953.2
  },
  {
    "type": "small_airport",
    "name": "Kotabangun Airport",
    "gps_code": "ID-KOD",
    "freq": "",
    "Lat": -0.266669988632,
    "Lon": 116.583335876,
    "Ele": 4.0
  },
  {
    "type": "small_airport",
    "name": "Departi Parbo Airport",
    "gps_code": "ID-KRC",
    "freq": "",
    "Lat": -2.094042,
    "Lon": 101.47025,
    "Ele": 792.5
  },
  {
    "type": "small_airport",
    "name": "Kelila Airport",
    "gps_code": "ID-LLN",
    "freq": "",
    "Lat": -3.728968,
    "Lon": 138.710117,
    "Ele": 2771.2
  },
  {
    "type": "small_airport",
    "name": "Masalembo Airport",
    "gps_code": "ID-MSI",
    "freq": "",
    "Lat": -5.583330154418945,
    "Lon": 114.43299865722656,
    "Ele": 9.1
  },
  {
    "type": "small_airport",
    "name": "Banaina Airport",
    "gps_code": "ID-NAF",
    "freq": "",
    "Lat": 2.72305011749,
    "Lon": 117.125999451,
    "Ele": 18.3
  },
  {
    "type": "small_airport",
    "name": "Obano Airport",
    "gps_code": "ID-OBD",
    "freq": "",
    "Lat": -3.9106,
    "Lon": 136.2306,
    "Ele": 1767.8
  },
  {
    "type": "small_airport",
    "name": "Unknown Airport",
    "gps_code": "ID-PPJ",
    "freq": "",
    "Lat": -0.63333,
    "Lon": 103.300003,
    "Ele": 10.1
  },
  {
    "type": "small_airport",
    "name": "Pomala Airport",
    "gps_code": "ID-PUM",
    "freq": "",
    "Lat": -4.181013,
    "Lon": 121.614665,
    "Ele": 26.8
  },
  {
    "type": "small_airport",
    "name": "Mentawai Airport",
    "gps_code": "ID-RKI",
    "freq": "",
    "Lat": -2.094167,
    "Lon": 99.699167,
    "Ele": 7.9
  },
  {
    "type": "small_airport",
    "name": "Tiom Airport",
    "gps_code": "ID-TMY",
    "freq": "",
    "Lat": -3.9256,
    "Lon": 138.4555,
    "Ele": 2112.6
  },
  {
    "type": "medium_airport",
    "name": "Bilorai Airport",
    "gps_code": "ID-ZGP",
    "freq": "",
    "Lat": -3.739503,
    "Lon": 137.031183,
    "Ele": 2239.7
  },
  {
    "type": "small_airport",
    "name": "Jos Orno Imsula Airport",
    "gps_code": "JIO",
    "freq": "",
    "Lat": -8.140402,
    "Lon": 127.908758,
    "Ele": 13.1
  },
  {
    "type": "small_airport",
    "name": "Kuala Batu Airport",
    "gps_code": "KJX",
    "freq": "",
    "Lat": 3.735749,
    "Lon": 96.790109,
    "Ele": 0.9
  },
  {
    "type": "small_airport",
    "name": "Kimaam Airport",
    "gps_code": "KMM",
    "freq": "",
    "Lat": -7.97789,
    "Lon": 138.851776,
    "Ele": 7.9
  },
  {
    "type": "small_airport",
    "name": "Maleo Airport",
    "gps_code": "MOH",
    "freq": "",
    "Lat": -2.201143,
    "Lon": 121.662884,
    "Ele": 3.7
  },
  {
    "type": "small_airport",
    "name": "Sinak Airport",
    "gps_code": "NKD",
    "freq": "",
    "Lat": -3.822249,
    "Lon": 137.839208,
    "Ele": 2224.7
  },
  {
    "type": "small_airport",
    "name": "Aru Airport",
    "gps_code": "WA1B",
    "freq": "",
    "Lat": -6.57342004776001,
    "Lon": 134.14700317382812,
    "Ele": 50.3
  },
  {
    "type": "small_airport",
    "name": "Maranggo Airport",
    "gps_code": "WA44",
    "freq": "905.500",
    "Lat": -5.76457,
    "Lon": 123.917,
    "Ele": 51.5
  },
  {
    "type": "large_airport",
    "name": "Hasanuddin International Airport",
    "gps_code": "WAAA",
    "freq": "119.400",
    "Lat": -5.06163,
    "Lon": 119.554001,
    "Ele": 14.3
  },
  {
    "type": "small_airport",
    "name": "Malimpung Airport",
    "gps_code": "WAAG",
    "freq": "",
    "Lat": -3.7382,
    "Lon": 119.7502,
    "Ele": 37.8
  },
  {
    "type": "small_airport",
    "name": "Makale Airport",
    "gps_code": "WAAT",
    "freq": "",
    "Lat": -3.10935997963,
    "Lon": 119.856002808,
    "Ele": 826.3
  },
  {
    "type": "medium_airport",
    "name": "Frans Kaisiepo Airport",
    "gps_code": "WABB",
    "freq": "121.200",
    "Lat": -1.19002,
    "Lon": 136.108002,
    "Ele": 14.0
  },
  {
    "type": "small_airport",
    "name": "Akimuga Airstrip",
    "gps_code": "WABC",
    "freq": "",
    "Lat": -4.6043,
    "Lon": 137.6576,
    "Ele": 50.0
  },
  {
    "type": "small_airport",
    "name": "Moanamani Airport",
    "gps_code": "WABD",
    "freq": "",
    "Lat": -4.00659,
    "Lon": 136.037704,
    "Ele": 1586.2
  },
  {
    "type": "small_airport",
    "name": "Kornasoren Airport",
    "gps_code": "WABF",
    "freq": "",
    "Lat": -0.935745,
    "Lon": 134.872292,
    "Ele": 4.0
  },
  {
    "type": "small_airport",
    "name": "Deiyai / Waghete Baru Airport",
    "gps_code": "WABG",
    "freq": "",
    "Lat": -4.05916,
    "Lon": 136.281715,
    "Ele": 542.2
  },
  {
    "type": "medium_airport",
    "name": "Douw Aturure Airport",
    "gps_code": "WABI",
    "freq": "",
    "Lat": -3.397973,
    "Lon": 135.393071,
    "Ele": 6.7
  },
  {
    "type": "small_airport",
    "name": "Karubaga Airport",
    "gps_code": "WABK",
    "freq": "",
    "Lat": -3.684615,
    "Lon": 138.479018,
    "Ele": 1585.0
  },
  {
    "type": "small_airport",
    "name": "Ilaga Airport",
    "gps_code": "WABL",
    "freq": "",
    "Lat": -3.97648,
    "Lon": 137.6225,
    "Ele": 2435.0
  },
  {
    "type": "small_airport",
    "name": "Kokonao Airport",
    "gps_code": "WABN",
    "freq": "",
    "Lat": -4.71075,
    "Lon": 136.43515,
    "Ele": 18.0
  },
  {
    "type": "medium_airport",
    "name": "Stevanus Rumbewas Airport",
    "gps_code": "WABO",
    "freq": "",
    "Lat": -1.82842,
    "Lon": 136.062402,
    "Ele": 6.1
  },
  {
    "type": "medium_airport",
    "name": "Mozes Kilangin Airport",
    "gps_code": "WABP",
    "freq": "681.100",
    "Lat": -4.52978,
    "Lon": 136.887388,
    "Ele": 31.4
  },
  {
    "type": "small_airport",
    "name": "Enarotali Airport",
    "gps_code": "WABT",
    "freq": "",
    "Lat": -3.925739,
    "Lon": 136.378634,
    "Ele": 1770.0
  },
  {
    "type": "small_airport",
    "name": "Waren Airport",
    "gps_code": "WABW",
    "freq": "",
    "Lat": -1.6285300254822,
    "Lon": 134.12399291992,
    "Ele": 8.8
  },
  {
    "type": "small_airport",
    "name": "Kebo Airstrip",
    "gps_code": "WABY",
    "freq": "",
    "Lat": -3.8248,
    "Lon": 136.385844,
    "Ele": 1781.6
  },
  {
    "type": "small_airport",
    "name": "Sultan Muhammad Salahuddin Airport",
    "gps_code": "WADB",
    "freq": "782.500",
    "Lat": -8.537184,
    "Lon": 118.685002,
    "Ele": 0.9
  },
  {
    "type": "large_airport",
    "name": "Denpasar I Gusti Ngurah Rai International Airport",
    "gps_code": "WADD",
    "freq": "119.700",
    "Lat": -8.748409,
    "Lon": 115.167123,
    "Ele": 4.3
  },
  {
    "type": "small_airport",
    "name": "Lieutenant Colonel Wisnu Airfield",
    "gps_code": "WADE",
    "freq": "",
    "Lat": -8.139292,
    "Lon": 114.615367,
    "Ele": 4.9
  },
  {
    "type": "medium_airport",
    "name": "Lombok International Airport",
    "gps_code": "WADL",
    "freq": "",
    "Lat": -8.759962,
    "Lon": 116.278169,
    "Ele": 97.2
  },
  {
    "type": "small_airport",
    "name": "Sultan Muhammad Kaharuddin III Airport",
    "gps_code": "WADS",
    "freq": "118.100",
    "Lat": -8.48904,
    "Lon": 117.412003,
    "Ele": 4.9
  },
  {
    "type": "small_airport",
    "name": "Tambolaka Airport",
    "gps_code": "WADT",
    "freq": "122.500",
    "Lat": -9.409224,
    "Lon": 119.242558,
    "Ele": 49.1
  },
  {
    "type": "small_airport",
    "name": "Lunyuk Airport",
    "gps_code": "WADU",
    "freq": "",
    "Lat": -8.989931,
    "Lon": 117.216018,
    "Ele": 13.4
  },
  {
    "type": "small_airport",
    "name": "Umbu Mehang Kunda Airport",
    "gps_code": "WADW",
    "freq": "122.200",
    "Lat": -9.66922,
    "Lon": 120.302002,
    "Ele": 10.1
  },
  {
    "type": "small_airport",
    "name": "Banyuwangi Airport",
    "gps_code": "WADY",
    "freq": "",
    "Lat": -8.31015,
    "Lon": 114.3401,
    "Ele": 34.1
  },
  {
    "type": "small_airport",
    "name": "Mahak Baru Airport",
    "gps_code": "WAEA",
    "freq": "",
    "Lat": 1.405984,
    "Lon": 115.332459,
    "Ele": 524.9
  },
  {
    "type": "medium_airport",
    "name": "Sultan Babullah Airport",
    "gps_code": "WAEE",
    "freq": "122.400",
    "Lat": 0.831012,
    "Lon": 127.381611,
    "Ele": 14.9
  },
  {
    "type": "small_airport",
    "name": "Lebone Airstrip",
    "gps_code": "WAEF",
    "freq": "",
    "Lat": -1.333333,
    "Lon": 121.633333,
    "Ele": 497.1
  },
  {
    "type": "small_airport",
    "name": "Emalamo Airport",
    "gps_code": "WAES",
    "freq": "",
    "Lat": -2.100424,
    "Lon": 125.965838,
    "Ele": 3.4
  },
  {
    "type": "medium_airport",
    "name": "Pitu Airport",
    "gps_code": "WAEW",
    "freq": "122.200",
    "Lat": 2.04599,
    "Lon": 128.324997,
    "Ele": 14.9
  },
  {
    "type": "medium_airport",
    "name": "Toraja Airport",
    "gps_code": "WAFB",
    "freq": "",
    "Lat": -3.185833,
    "Lon": 119.91775,
    "Ele": 879.0
  },
  {
    "type": "small_airport",
    "name": "Bua - Palopo Lagaligo Airport",
    "gps_code": "WAFD",
    "freq": "",
    "Lat": -3.082997,
    "Lon": 120.245018,
    "Ele": 4.3
  },
  {
    "type": "medium_airport",
    "name": "Mutiara - SIS Al-Jufrie Airport",
    "gps_code": "WAFF",
    "freq": "118.700",
    "Lat": -0.916462,
    "Lon": 119.908647,
    "Ele": 86.6
  },
  {
    "type": "small_airport",
    "name": "Tampa Padang Airport",
    "gps_code": "WAFJ",
    "freq": "",
    "Lat": -2.590017,
    "Lon": 119.025051,
    "Ele": 14.9
  },
  {
    "type": "small_airport",
    "name": "Sultan Bantilan Airport",
    "gps_code": "WAFL",
    "freq": "",
    "Lat": 1.123428,
    "Lon": 120.793658,
    "Ele": 5.2
  },
  {
    "type": "small_airport",
    "name": "Andi Jemma Airport",
    "gps_code": "WAFM",
    "freq": "534.000",
    "Lat": -2.558031,
    "Lon": 120.324342,
    "Ele": 50.0
  },
  {
    "type": "small_airport",
    "name": "Seko Airport",
    "gps_code": "WAFN",
    "freq": "",
    "Lat": -2.271242,
    "Lon": 119.898205,
    "Ele": 1069.8
  },
  {
    "type": "medium_airport",
    "name": "Kasiguncu Airport",
    "gps_code": "WAFP",
    "freq": "457.500",
    "Lat": -1.414121,
    "Lon": 120.659241,
    "Ele": 53.0
  },
  {
    "type": "small_airport",
    "name": "Sumarorong Airport",
    "gps_code": "WAFS",
    "freq": "",
    "Lat": -3.150399,
    "Lon": 119.302277,
    "Ele": 924.5
  },
  {
    "type": "small_airport",
    "name": "Tanjung Api Airport",
    "gps_code": "WAFU",
    "freq": "",
    "Lat": -0.865437,
    "Lon": 121.628625,
    "Ele": 14.9
  },
  {
    "type": "medium_airport",
    "name": "Syukuran Aminuddin Amir Airport",
    "gps_code": "WAFW",
    "freq": "122.800",
    "Lat": -1.035893,
    "Lon": 122.773934,
    "Ele": 17.1
  },
  {
    "type": "small_airport",
    "name": "Panua Pohuwato Airport",
    "gps_code": "WAFZ",
    "freq": "",
    "Lat": 0.461782,
    "Lon": 121.814668,
    "Ele": 0.0
  },
  {
    "type": "small_airport",
    "name": "Haji Muhammad Sidik Airport",
    "gps_code": "WAGB",
    "freq": "",
    "Lat": -1.02581,
    "Lon": 114.92881,
    "Ele": 44.2
  },
  {
    "type": "small_airport",
    "name": "Seruyan Kuala Pembuang Airport",
    "gps_code": "WAGF",
    "freq": "",
    "Lat": -3.376062,
    "Lon": 112.536521,
    "Ele": 4.0
  },
  {
    "type": "medium_airport",
    "name": "Tjilik Riwut Airport",
    "gps_code": "WAGG",
    "freq": "127.000",
    "Lat": -2.227146,
    "Lon": 113.943388,
    "Ele": 25.0
  },
  {
    "type": "small_airport",
    "name": "Long Apari Airport",
    "gps_code": "WAGL",
    "freq": "",
    "Lat": 3.083333,
    "Lon": 116.433333,
    "Ele": 77.1
  },
  {
    "type": "small_airport",
    "name": "Purukcahu Airport",
    "gps_code": "WAGP",
    "freq": "",
    "Lat": -0.688364,
    "Lon": 114.444658,
    "Ele": 134.7
  },
  {
    "type": "medium_airport",
    "name": "Yogyakarta International Airport",
    "gps_code": "WAHI",
    "freq": "",
    "Lat": -7.905338,
    "Lon": 110.057264,
    "Ele": 7.3
  },
  {
    "type": "medium_airport",
    "name": "Tunggul Wulung Airport",
    "gps_code": "WAHL",
    "freq": "122.800",
    "Lat": -7.64506,
    "Lon": 109.033997,
    "Ele": 21.0
  },
  {
    "type": "small_airport",
    "name": "Jenderal Besar Soedirman Airport",
    "gps_code": "WAHP",
    "freq": "",
    "Lat": -7.461342,
    "Lon": 109.414612,
    "Ele": 68.6
  },
  {
    "type": "small_airport",
    "name": "Dewadaru Airport",
    "gps_code": "WAHU",
    "freq": "0.336",
    "Lat": -5.80091,
    "Lon": 110.47838,
    "Ele": 10.7
  },
  {
    "type": "small_airport",
    "name": "Bokondini Airport",
    "gps_code": "WAJB",
    "freq": "",
    "Lat": -3.68455,
    "Lon": 138.677437,
    "Ele": 1386.8
  },
  {
    "type": "small_airport",
    "name": "Dabra Airport",
    "gps_code": "WAJC",
    "freq": "",
    "Lat": -3.27061,
    "Lon": 138.613433,
    "Ele": 63.4
  },
  {
    "type": "small_airport",
    "name": "Wakde Airport",
    "gps_code": "WAJD",
    "freq": "",
    "Lat": -1.93529,
    "Lon": 139.020004,
    "Ele": 0.9
  },
  {
    "type": "small_airport",
    "name": "Batom Airport",
    "gps_code": "WAJG",
    "freq": "",
    "Lat": -4.442687,
    "Lon": 140.883565,
    "Ele": 120.7
  },
  {
    "type": "small_airport",
    "name": "Mararena Sarmi Airport",
    "gps_code": "WAJI",
    "freq": "",
    "Lat": -1.873077,
    "Lon": 138.753275,
    "Ele": 3.0
  },
  {
    "type": "large_airport",
    "name": "Dortheys Hiyo Eluay International Airport",
    "gps_code": "WAJJ",
    "freq": "119.100",
    "Lat": -2.579627,
    "Lon": 140.519857,
    "Ele": 88.1
  },
  {
    "type": "small_airport",
    "name": "Kiwirok Airstrip",
    "gps_code": "WAJK",
    "freq": "",
    "Lat": -4.713481,
    "Lon": 140.740271,
    "Ele": 1667.3
  },
  {
    "type": "small_airport",
    "name": "Lereh Airport",
    "gps_code": "WAJL",
    "freq": "",
    "Lat": -3.080046,
    "Lon": 139.952817,
    "Ele": 249.9
  },
  {
    "type": "small_airport",
    "name": "Mulia Airport",
    "gps_code": "WAJM",
    "freq": "",
    "Lat": -3.701938,
    "Lon": 137.957,
    "Ele": 1797.7
  },
  {
    "type": "medium_airport",
    "name": "Oksibil Airport",
    "gps_code": "WAJO",
    "freq": "",
    "Lat": -4.9071,
    "Lon": 140.6277,
    "Ele": 1315.2
  },
  {
    "type": "small_airport",
    "name": "Senggeh Airport",
    "gps_code": "WAJS",
    "freq": "",
    "Lat": -3.442448,
    "Lon": 140.778079,
    "Ele": 278.6
  },
  {
    "type": "small_airport",
    "name": "Werur Airport",
    "gps_code": "WAJY",
    "freq": "",
    "Lat": -0.420096,
    "Lon": 132.1886,
    "Ele": 10.7
  },
  {
    "type": "small_airport",
    "name": "Mindiptana Airport",
    "gps_code": "WAKD",
    "freq": "",
    "Lat": -5.876929,
    "Lon": 140.70946,
    "Ele": 36.9
  },
  {
    "type": "small_airport",
    "name": "Bade Airport",
    "gps_code": "WAKE",
    "freq": "",
    "Lat": -7.175902,
    "Lon": 139.58333,
    "Ele": 18.0
  },
  {
    "type": "small_airport",
    "name": "Agats Airport",
    "gps_code": "WAKG",
    "freq": "",
    "Lat": -5.543288,
    "Lon": 138.134911,
    "Ele": 5.2
  },
  {
    "type": "medium_airport",
    "name": "Mopah International Airport",
    "gps_code": "WAKK",
    "freq": "558.000",
    "Lat": -8.523898,
    "Lon": 140.419693,
    "Ele": 3.0
  },
  {
    "type": "small_airport",
    "name": "Bomakia Airport",
    "gps_code": "WAKL",
    "freq": "",
    "Lat": -5.806483,
    "Lon": 139.867647,
    "Ele": 9.1
  },
  {
    "type": "small_airport",
    "name": "Kamur Airport",
    "gps_code": "WAKM",
    "freq": "",
    "Lat": -6.1851,
    "Lon": 138.6372,
    "Ele": 7.6
  },
  {
    "type": "small_airport",
    "name": "Okaba Airport",
    "gps_code": "WAKO",
    "freq": "",
    "Lat": -8.0946,
    "Lon": 139.7233,
    "Ele": 7.0
  },
  {
    "type": "small_airport",
    "name": "Kepi Airport",
    "gps_code": "WAKP",
    "freq": "",
    "Lat": -6.54297,
    "Lon": 139.332401,
    "Ele": 20.4
  },
  {
    "type": "small_airport",
    "name": "Senggo Airport",
    "gps_code": "WAKQ",
    "freq": "",
    "Lat": -5.690668,
    "Lon": 139.350414,
    "Ele": 15.8
  },
  {
    "type": "medium_airport",
    "name": "Tanah Merah Airport",
    "gps_code": "WAKT",
    "freq": "",
    "Lat": -6.09669,
    "Lon": 140.303521,
    "Ele": 17.4
  },
  {
    "type": "small_airport",
    "name": "Melalan Airport",
    "gps_code": "WALE",
    "freq": "",
    "Lat": -0.203611,
    "Lon": 115.760002,
    "Ele": 100.6
  },
  {
    "type": "small_airport",
    "name": "Tanjung Harapan Airport",
    "gps_code": "WALG",
    "freq": "118.500",
    "Lat": 2.835833,
    "Lon": 117.373611,
    "Ele": 6.1
  },
  {
    "type": "small_airport",
    "name": "Datadawai Airport",
    "gps_code": "WALJ",
    "freq": "",
    "Lat": 0.807028,
    "Lon": 114.529052,
    "Ele": 154.8
  },
  {
    "type": "small_airport",
    "name": "Nusantara Airport (under construction)",
    "gps_code": "WALK",
    "freq": "",
    "Lat": -1.158611,
    "Lon": 116.708054,
    "Ele": 7.0
  },
  {
    "type": "large_airport",
    "name": "Sultan Aji Muhammad Sulaiman Sepinggan International Airport",
    "gps_code": "WALL",
    "freq": "120.400",
    "Lat": -1.268342,
    "Lon": 116.89452,
    "Ele": 3.7
  },
  {
    "type": "small_airport",
    "name": "Muara Badak Pujangan Airport",
    "gps_code": "WALQ",
    "freq": "127.700",
    "Lat": -0.305999,
    "Lon": 117.415667,
    "Ele": 14.9
  },
  {
    "type": "medium_airport",
    "name": "Juwata International Airport / Suharnoko Harbani AFB",
    "gps_code": "WALR",
    "freq": "125.500",
    "Lat": 3.325145,
    "Lon": 117.564169,
    "Ele": 7.0
  },
  {
    "type": "medium_airport",
    "name": "Aji Pangeran Tumenggung Pranoto International Airport",
    "gps_code": "WALS",
    "freq": "122.400",
    "Lat": -0.374478,
    "Lon": 117.250128,
    "Ele": 25.0
  },
  {
    "type": "small_airport",
    "name": "Tanjung Santan Airport",
    "gps_code": "WALT",
    "freq": "129.700",
    "Lat": -0.092633,
    "Lon": 117.439109,
    "Ele": 36.9
  },
  {
    "type": "small_airport",
    "name": "Bunyu Airport",
    "gps_code": "WALV",
    "freq": "534.000",
    "Lat": 3.45572,
    "Lon": 117.866997,
    "Ele": 36.0
  },
  {
    "type": "small_airport",
    "name": "Mangkajang Airport",
    "gps_code": "WALX",
    "freq": "122.300",
    "Lat": 2.00751,
    "Lon": 117.749001,
    "Ele": 14.3
  },
  {
    "type": "small_airport",
    "name": "Gamarmalamo Airport",
    "gps_code": "WAMA",
    "freq": "",
    "Lat": 1.838134,
    "Lon": 127.786191,
    "Ele": 47.9
  },
  {
    "type": "small_airport",
    "name": "Jailolo/Kuripasai Airport",
    "gps_code": "WAMD",
    "freq": "",
    "Lat": 1.1169999837875366,
    "Lon": 127.48300170898438,
    "Ele": 15.2
  },
  {
    "type": "small_airport",
    "name": "Buli Airport",
    "gps_code": "WAME",
    "freq": "",
    "Lat": 0.917144,
    "Lon": 128.382116,
    "Ele": 2.1
  },
  {
    "type": "small_airport",
    "name": "Jalaluddin Airport",
    "gps_code": "WAMG",
    "freq": "905.500",
    "Lat": 0.637119,
    "Lon": 122.849998,
    "Ele": 32.0
  },
  {
    "type": "medium_airport",
    "name": "Naha Airport",
    "gps_code": "WAMH",
    "freq": "123.000",
    "Lat": 3.68478,
    "Lon": 125.527162,
    "Ele": 4.9
  },
  {
    "type": "small_airport",
    "name": "Bolaang Mongondow Airport",
    "gps_code": "WAMI",
    "freq": "",
    "Lat": 0.88855,
    "Lon": 124.033634,
    "Ele": 8.5
  },
  {
    "type": "small_airport",
    "name": "Gebe Airport",
    "gps_code": "WAMJ",
    "freq": "",
    "Lat": -0.078889,
    "Lon": 129.457993,
    "Ele": 38.1
  },
  {
    "type": "small_airport",
    "name": "Kuabang Airport",
    "gps_code": "WAMK",
    "freq": "",
    "Lat": 1.188608,
    "Lon": 127.896036,
    "Ele": 12.2
  },
  {
    "type": "medium_airport",
    "name": "Sam Ratulangi Airport",
    "gps_code": "WAMM",
    "freq": "119.000",
    "Lat": 1.549266,
    "Lon": 124.926319,
    "Ele": 80.5
  },
  {
    "type": "small_airport",
    "name": "Melangguane Airport",
    "gps_code": "WAMN",
    "freq": "",
    "Lat": 4.010334,
    "Lon": 126.673192,
    "Ele": 0.9
  },
  {
    "type": "small_airport",
    "name": "Siau/Sitaro Airport",
    "gps_code": "WAMO",
    "freq": "",
    "Lat": 2.648591,
    "Lon": 125.423301,
    "Ele": 47.2
  },
  {
    "type": "small_airport",
    "name": "Indonesia Morowali Industrial Park (IMIP) Airport",
    "gps_code": "WAMP",
    "freq": "",
    "Lat": -2.799322,
    "Lon": 122.141385,
    "Ele": 7.3
  },
  {
    "type": "small_airport",
    "name": "Miangas Airport",
    "gps_code": "WAMS",
    "freq": "",
    "Lat": 5.560419,
    "Lon": 126.580095,
    "Ele": 2.7
  },
  {
    "type": "small_airport",
    "name": "Wuasa Airport",
    "gps_code": "WAMU",
    "freq": "",
    "Lat": -1.425,
    "Lon": 120.316391,
    "Ele": 0.3
  },
  {
    "type": "small_airport",
    "name": "Buol - Pogogul Airport",
    "gps_code": "WAMY",
    "freq": "",
    "Lat": 1.102318,
    "Lon": 121.413358,
    "Ele": 14.9
  },
  {
    "type": "small_airport",
    "name": "Bersujud Airport",
    "gps_code": "WAOC",
    "freq": "",
    "Lat": -3.41241,
    "Lon": 115.995003,
    "Ele": 0.9
  },
  {
    "type": "small_airport",
    "name": "Sekapung Airport",
    "gps_code": "WAOG",
    "freq": "",
    "Lat": -3.626954,
    "Lon": 116.370352,
    "Ele": 2.1
  },
  {
    "type": "small_airport",
    "name": "Mekar Putih Airport",
    "gps_code": "WAOH",
    "freq": "544.250",
    "Lat": -3.989646,
    "Lon": 116.101499,
    "Ele": 60.0
  },
  {
    "type": "small_airport",
    "name": "Iskandar Airport",
    "gps_code": "WAOI",
    "freq": "122.200",
    "Lat": -2.7052,
    "Lon": 111.672997,
    "Ele": 22.9
  },
  {
    "type": "small_airport",
    "name": "Gusti Syamsir Alam Airport",
    "gps_code": "WAOK",
    "freq": "",
    "Lat": -3.294796,
    "Lon": 116.163815,
    "Ele": 1.2
  },
  {
    "type": "medium_airport",
    "name": "Warukin Airport",
    "gps_code": "WAON",
    "freq": "122.100",
    "Lat": -2.21656,
    "Lon": 115.435997,
    "Ele": 60.0
  },
  {
    "type": "medium_airport",
    "name": "Syamsudin Noor International Airport",
    "gps_code": "WAOO",
    "freq": "126.500",
    "Lat": -3.44236,
    "Lon": 114.763,
    "Ele": 20.1
  },
  {
    "type": "small_airport",
    "name": "Sampit (Hasan) Airport",
    "gps_code": "WAOS",
    "freq": "122.800",
    "Lat": -2.499198,
    "Lon": 112.974987,
    "Ele": 15.2
  },
  {
    "type": "small_airport",
    "name": "Teluk Kepayang Airport",
    "gps_code": "WAOT",
    "freq": "",
    "Lat": -3.4203,
    "Lon": 115.6867,
    "Ele": 31.4
  },
  {
    "type": "small_airport",
    "name": "Sanggu Airport",
    "gps_code": "WAOU",
    "freq": "",
    "Lat": -1.669533,
    "Lon": 114.899265,
    "Ele": 7.0
  },
  {
    "type": "small_airport",
    "name": "Tumbang Samba Airport",
    "gps_code": "WAOW",
    "freq": "",
    "Lat": -1.469024,
    "Lon": 113.080984,
    "Ele": 48.8
  },
  {
    "type": "small_airport",
    "name": "Amahai Airport",
    "gps_code": "WAPA",
    "freq": "",
    "Lat": -3.347851,
    "Lon": 128.927093,
    "Ele": 8.8
  },
  {
    "type": "small_airport",
    "name": "Bula Airport",
    "gps_code": "WAPB",
    "freq": "",
    "Lat": -3.10996,
    "Lon": 130.509995,
    "Ele": 3.0
  },
  {
    "type": "small_airport",
    "name": "Bandanaira Airport",
    "gps_code": "WAPC",
    "freq": "",
    "Lat": -4.5214,
    "Lon": 129.9054,
    "Ele": 18.0
  },
  {
    "type": "small_airport",
    "name": "Rar Gwamar Airport",
    "gps_code": "WAPD",
    "freq": "",
    "Lat": -5.773724,
    "Lon": 134.209245,
    "Ele": 18.6
  },
  {
    "type": "small_airport",
    "name": "Mangole Airport, Falabisahaya",
    "gps_code": "WAPE",
    "freq": "",
    "Lat": -1.782255,
    "Lon": 125.482246,
    "Ele": 3.0
  },
  {
    "type": "medium_airport",
    "name": "Karel Sadsuitubun Airport",
    "gps_code": "WAPF",
    "freq": "",
    "Lat": -5.760278,
    "Lon": 132.759444,
    "Ele": 23.8
  },
  {
    "type": "small_airport",
    "name": "Namrole Airport",
    "gps_code": "WAPG",
    "freq": "",
    "Lat": -3.85522,
    "Lon": 126.700902,
    "Ele": 9.4
  },
  {
    "type": "small_airport",
    "name": "Oesman Sadik Airport",
    "gps_code": "WAPH",
    "freq": "",
    "Lat": -0.633764,
    "Lon": 127.505394,
    "Ele": 14.9
  },
  {
    "type": "small_airport",
    "name": "Saumlaki/Olilit Airport",
    "gps_code": "WAPI",
    "freq": "",
    "Lat": -7.98861,
    "Lon": 131.306,
    "Ele": 66.4
  },
  {
    "type": "small_airport",
    "name": "Benjina Airport",
    "gps_code": "WAPK",
    "freq": "1340.000",
    "Lat": -6.06613,
    "Lon": 134.273971,
    "Ele": 25.0
  },
  {
    "type": "small_airport",
    "name": "Dumatubin Airport",
    "gps_code": "WAPL",
    "freq": "120.000",
    "Lat": -5.66162,
    "Lon": 132.731003,
    "Ele": 3.0
  },
  {
    "type": "medium_airport",
    "name": "Namniwel Airport",
    "gps_code": "WAPN",
    "freq": "",
    "Lat": -3.143159,
    "Lon": 126.976469,
    "Ele": 2.1
  },
  {
    "type": "small_airport",
    "name": "Larat Airport",
    "gps_code": "WAPO",
    "freq": "",
    "Lat": -7.1282,
    "Lon": 131.7673,
    "Ele": 32.9
  },
  {
    "type": "medium_airport",
    "name": "Pattimura International Airport",
    "gps_code": "WAPP",
    "freq": "121.000",
    "Lat": -3.71026,
    "Lon": 128.089005,
    "Ele": 10.1
  },
  {
    "type": "small_airport",
    "name": "Namlea Airport",
    "gps_code": "WAPR",
    "freq": "",
    "Lat": -3.236887,
    "Lon": 127.100215,
    "Ele": 12.5
  },
  {
    "type": "small_airport",
    "name": "Taliabu Island Airport",
    "gps_code": "WAPT",
    "freq": "",
    "Lat": -1.6426299810409546,
    "Lon": 124.55899810791016,
    "Ele": 2.7
  },
  {
    "type": "small_airport",
    "name": "Kufar Airport",
    "gps_code": "WAPU",
    "freq": "",
    "Lat": -3.462637,
    "Lon": 130.790593,
    "Ele": 5.8
  },
  {
    "type": "small_airport",
    "name": "Wahai Airport",
    "gps_code": "WAPV",
    "freq": "",
    "Lat": -2.8114,
    "Lon": 129.484,
    "Ele": 170.1
  },
  {
    "type": "small_airport",
    "name": "Maratua Airport",
    "gps_code": "WAQC",
    "freq": "",
    "Lat": 2.19759,
    "Lon": 118.599361,
    "Ele": 13.1
  },
  {
    "type": "small_airport",
    "name": "Binuang Airport",
    "gps_code": "WAQG",
    "freq": "",
    "Lat": 3.773936,
    "Lon": 115.855914,
    "Ele": 769.0
  },
  {
    "type": "small_airport",
    "name": "Robert Atty Bessing",
    "gps_code": "WAQM",
    "freq": "",
    "Lat": 3.575256,
    "Lon": 116.619769,
    "Ele": 7.9
  },
  {
    "type": "medium_airport",
    "name": "Kalimarau Airport",
    "gps_code": "WAQT",
    "freq": "808.250",
    "Lat": 2.14776,
    "Lon": 117.430705,
    "Ele": 18.0
  },
  {
    "type": "small_airport",
    "name": "Long Layu Airport",
    "gps_code": "WAQU",
    "freq": "",
    "Lat": 3.611585,
    "Lon": 115.69921,
    "Ele": 878.4
  },
  {
    "type": "small_airport",
    "name": "Long Pujungan Airstrip",
    "gps_code": "WAQV",
    "freq": "",
    "Lat": 2.590605,
    "Lon": 115.79857,
    "Ele": 230.4
  },
  {
    "type": "small_airport",
    "name": "Long Sule Airstrip",
    "gps_code": "WAQW",
    "freq": "",
    "Lat": 1.384398,
    "Lon": 115.707323,
    "Ele": 619.0
  },
  {
    "type": "medium_airport",
    "name": "Abdul Rachman Saleh Airport",
    "gps_code": "WARA",
    "freq": "119.100",
    "Lat": -7.929099,
    "Lon": 112.714233,
    "Ele": 526.1
  },
  {
    "type": "small_airport",
    "name": "Ngloram Airport",
    "gps_code": "WARC",
    "freq": "",
    "Lat": -7.195522,
    "Lon": 111.545287,
    "Ele": 39.9
  },
  {
    "type": "small_airport",
    "name": "Notohadinegoro Airport",
    "gps_code": "WARE",
    "freq": "",
    "Lat": -8.242494,
    "Lon": 113.693476,
    "Ele": 85.6
  },
  {
    "type": "small_airport",
    "name": "Iswahjudi Air Base",
    "gps_code": "WARI",
    "freq": "122.600",
    "Lat": -7.61577,
    "Lon": 111.433998,
    "Ele": 110.0
  },
  {
    "type": "medium_airport",
    "name": "Adisutjipto Airport",
    "gps_code": "WARJ",
    "freq": "120.200",
    "Lat": -7.78818,
    "Lon": 110.431999,
    "Ele": 115.5
  },
  {
    "type": "small_airport",
    "name": "Pagerungan Airport",
    "gps_code": "WARP",
    "freq": "122.100",
    "Lat": -6.956515,
    "Lon": 115.931107,
    "Ele": 4.0
  },
  {
    "type": "medium_airport",
    "name": "Adisumarmo Airport",
    "gps_code": "WARQ",
    "freq": "123.400",
    "Lat": -7.516044,
    "Lon": 110.757492,
    "Ele": 128.3
  },
  {
    "type": "large_airport",
    "name": "Juanda International Airport",
    "gps_code": "WARR",
    "freq": "128.200",
    "Lat": -7.37983,
    "Lon": 112.787003,
    "Ele": 2.7
  },
  {
    "type": "medium_airport",
    "name": "Achmad Yani Airport",
    "gps_code": "WARS",
    "freq": "120.300",
    "Lat": -6.970732,
    "Lon": 110.373244,
    "Ele": 3.0
  },
  {
    "type": "small_airport",
    "name": "Trunojoyo Airport",
    "gps_code": "WART",
    "freq": "",
    "Lat": -7.022391,
    "Lon": 113.887699,
    "Ele": 3.0
  },
  {
    "type": "small_airport",
    "name": "Harun Thohir Airport",
    "gps_code": "WARW",
    "freq": "",
    "Lat": -5.723628,
    "Lon": 112.678889,
    "Ele": 28.3
  },
  {
    "type": "small_airport",
    "name": "Ayawasi Airport",
    "gps_code": "WASA",
    "freq": "",
    "Lat": -1.159779,
    "Lon": 132.464082,
    "Ele": 475.5
  },
  {
    "type": "small_airport",
    "name": "Stenkol Airport",
    "gps_code": "WASB",
    "freq": "",
    "Lat": -2.102572,
    "Lon": 133.515981,
    "Ele": 15.5
  },
  {
    "type": "small_airport",
    "name": "Abresso Airport",
    "gps_code": "WASC",
    "freq": "",
    "Lat": -1.496667,
    "Lon": 134.1925,
    "Ele": 15.8
  },
  {
    "type": "small_airport",
    "name": "Kebar Airport",
    "gps_code": "WASE",
    "freq": "",
    "Lat": -0.810418,
    "Lon": 133.054937,
    "Ele": 572.4
  },
  {
    "type": "medium_airport",
    "name": "Fakfak Airport",
    "gps_code": "WASF",
    "freq": "118.100",
    "Lat": -2.920508,
    "Lon": 132.267011,
    "Ele": 140.8
  },
  {
    "type": "small_airport",
    "name": "Inanwatan Airport",
    "gps_code": "WASI",
    "freq": "",
    "Lat": -2.127447,
    "Lon": 132.160056,
    "Ele": 2.7
  },
  {
    "type": "medium_airport",
    "name": "Utarom Airport",
    "gps_code": "WASK",
    "freq": "131.450",
    "Lat": -3.6446,
    "Lon": 133.695116,
    "Ele": 5.8
  },
  {
    "type": "small_airport",
    "name": "Merdey Airport",
    "gps_code": "WASM",
    "freq": "",
    "Lat": -1.591154,
    "Lon": 133.295867,
    "Ele": 117.3
  },
  {
    "type": "small_airport",
    "name": "Marinda Airport",
    "gps_code": "WASN",
    "freq": "",
    "Lat": -0.423056,
    "Lon": 130.773333,
    "Ele": 2.7
  },
  {
    "type": "medium_airport",
    "name": "Babo Airport",
    "gps_code": "WASO",
    "freq": "681.120",
    "Lat": -2.53224,
    "Lon": 133.438995,
    "Ele": 3.0
  },
  {
    "type": "medium_airport",
    "name": "Rendani Airport",
    "gps_code": "WASR",
    "freq": "122.200",
    "Lat": -0.891833,
    "Lon": 134.048996,
    "Ele": 7.0
  },
  {
    "type": "medium_airport",
    "name": "Domine Eduard Osok Airport",
    "gps_code": "WASS",
    "freq": "",
    "Lat": -0.894,
    "Lon": 131.287,
    "Ele": 3.0
  },
  {
    "type": "small_airport",
    "name": "Teminabuan Airport",
    "gps_code": "WAST",
    "freq": "",
    "Lat": -1.44545,
    "Lon": 132.021139,
    "Ele": 43.0
  },
  {
    "type": "small_airport",
    "name": "Kambuaya Airport",
    "gps_code": "WASU",
    "freq": "",
    "Lat": -1.316815,
    "Lon": 132.286987,
    "Ele": 433.4
  },
  {
    "type": "small_airport",
    "name": "Wasior Airport",
    "gps_code": "WASW",
    "freq": "",
    "Lat": -2.720434,
    "Lon": 134.505902,
    "Ele": 14.9
  },
  {
    "type": "small_airport",
    "name": "AA Bere Tallo (Haliwen) Airport",
    "gps_code": "WATA",
    "freq": "",
    "Lat": -9.074841,
    "Lon": 124.903285,
    "Ele": 313.0
  },
  {
    "type": "small_airport",
    "name": "Bajawa Soa (Turelelo) Airport",
    "gps_code": "WATB",
    "freq": "",
    "Lat": -8.70777,
    "Lon": 121.058243,
    "Ele": 1318.6
  },
  {
    "type": "small_airport",
    "name": "Frans Xavier Seda Airport",
    "gps_code": "WATC",
    "freq": "122.300",
    "Lat": -8.639514,
    "Lon": 122.238135,
    "Ele": 35.1
  },
  {
    "type": "small_airport",
    "name": "H. Hasan Aroeboesman (Ende) Airport",
    "gps_code": "WATE",
    "freq": "118.700",
    "Lat": -8.849114,
    "Lon": 121.66101,
    "Ele": 14.9
  },
  {
    "type": "small_airport",
    "name": "Frans Sales Lega Airport",
    "gps_code": "WATG",
    "freq": "122.600",
    "Lat": -8.596171,
    "Lon": 120.478177,
    "Ele": 1069.8
  },
  {
    "type": "small_airport",
    "name": "Larantuka Gewayentana Airport",
    "gps_code": "WATL",
    "freq": "",
    "Lat": -8.274424,
    "Lon": 123.002,
    "Ele": 19.2
  },
  {
    "type": "small_airport",
    "name": "Alor Island - Mali Airport",
    "gps_code": "WATM",
    "freq": "449.500",
    "Lat": -8.13234,
    "Lon": 124.597,
    "Ele": 3.0
  },
  {
    "type": "small_airport",
    "name": "Komodo Airport",
    "gps_code": "WATO",
    "freq": "449.500",
    "Lat": -8.480694,
    "Lon": 119.888306,
    "Ele": 20.1
  },
  {
    "type": "small_airport",
    "name": "John Becker Airport",
    "gps_code": "WATQ",
    "freq": "",
    "Lat": -8.015716,
    "Lon": 127.200179,
    "Ele": 1.8
  },
  {
    "type": "small_airport",
    "name": "David Constantijn Saudale Airport",
    "gps_code": "WATR",
    "freq": "",
    "Lat": -10.7673,
    "Lon": 123.0747,
    "Ele": 143.3
  },
  {
    "type": "small_airport",
    "name": "Sabu-Tardanu Airport",
    "gps_code": "WATS",
    "freq": "",
    "Lat": -10.4924,
    "Lon": 121.8482,
    "Ele": 21.6
  },
  {
    "type": "small_airport",
    "name": "El Tari Airport",
    "gps_code": "WATT",
    "freq": "341.600",
    "Lat": -10.1716,
    "Lon": 123.670998,
    "Ele": 102.1
  },
  {
    "type": "small_airport",
    "name": "Wonopito Airport",
    "gps_code": "WATW",
    "freq": "",
    "Lat": -8.361805,
    "Lon": 123.438554,
    "Ele": 7.6
  },
  {
    "type": "medium_airport",
    "name": "Wamena Airport",
    "gps_code": "WAVV",
    "freq": "120.000",
    "Lat": -4.097324,
    "Lon": 138.952417,
    "Ele": 1656.6
  },
  {
    "type": "small_airport",
    "name": "Betoambari Airport",
    "gps_code": "WAWB",
    "freq": "905.500",
    "Lat": -5.486037,
    "Lon": 122.569823,
    "Ele": 50.0
  },
  {
    "type": "medium_airport",
    "name": "Matahora Airport",
    "gps_code": "WAWD",
    "freq": "",
    "Lat": -5.293996,
    "Lon": 123.634,
    "Ele": 26.8
  },
  {
    "type": "small_airport",
    "name": "Selayar - Haji Aroeppala Airport",
    "gps_code": "WAWH",
    "freq": "",
    "Lat": -6.17921,
    "Lon": 120.437479,
    "Ele": 4.0
  },
  {
    "type": "small_airport",
    "name": "Arung Palakka Airport",
    "gps_code": "WAWN",
    "freq": "",
    "Lat": -4.459582,
    "Lon": 120.310436,
    "Ele": 39.6
  },
  {
    "type": "medium_airport",
    "name": "Sangia Nibandera Airport",
    "gps_code": "WAWP",
    "freq": "",
    "Lat": -4.338158,
    "Lon": 121.524047,
    "Ele": 12.2
  },
  {
    "type": "small_airport",
    "name": "Sugimanuru Airport",
    "gps_code": "WAWR",
    "freq": "",
    "Lat": -4.763298,
    "Lon": 122.566352,
    "Ele": 40.2
  },
  {
    "type": "small_airport",
    "name": "Soroako Airport",
    "gps_code": "WAWS",
    "freq": "122.200",
    "Lat": -2.530582,
    "Lon": 121.356096,
    "Ele": 423.1
  },
  {
    "type": "small_airport",
    "name": "Pongtiku Airport",
    "gps_code": "WAWT",
    "freq": "122.200",
    "Lat": -3.04474,
    "Lon": 119.821999,
    "Ele": 879.0
  },
  {
    "type": "small_airport",
    "name": "Haluoleo Airport",
    "gps_code": "WAWW",
    "freq": "122.200",
    "Lat": -4.08161,
    "Lon": 122.417999,
    "Ele": 164.0
  },
  {
    "type": "small_airport",
    "name": "Mapenduma Airstrip",
    "gps_code": "WAYH",
    "freq": "",
    "Lat": -4.30893,
    "Lon": 138.246504,
    "Ele": 1009.8
  },
  {
    "type": "small_airport",
    "name": "Bilai Airstrip",
    "gps_code": "WAYI",
    "freq": "",
    "Lat": -3.741405,
    "Lon": 136.859239,
    "Ele": 1723.9
  },
  {
    "type": "small_airport",
    "name": "Potowai Buru Airstrip",
    "gps_code": "WAYP",
    "freq": "",
    "Lat": -4.283533,
    "Lon": 134.974353,
    "Ele": 48.8
  },
  {
    "type": "small_airport",
    "name": "Paro Airstrip",
    "gps_code": "WAYQ",
    "freq": "",
    "Lat": -4.388644,
    "Lon": 138.233939,
    "Ele": 513.6
  },
  {
    "type": "small_airport",
    "name": "Wangbe Airstrip",
    "gps_code": "WAYU",
    "freq": "",
    "Lat": -3.868616,
    "Lon": 137.468316,
    "Ele": 2330.2
  },
  {
    "type": "small_airport",
    "name": "Waren Airstrip",
    "gps_code": "WAYW",
    "freq": "",
    "Lat": -2.264493,
    "Lon": 136.384144,
    "Ele": 11.0
  },
  {
    "type": "small_airport",
    "name": "Suparlan Batujajar Airport",
    "gps_code": "WI1B",
    "freq": "",
    "Lat": -6.903611,
    "Lon": 107.475556,
    "Ele": 655.3
  },
  {
    "type": "small_airport",
    "name": "Rumpin Airport",
    "gps_code": "WI1C",
    "freq": "",
    "Lat": -6.371861,
    "Lon": 106.621861,
    "Ele": 68.0
  },
  {
    "type": "small_airport",
    "name": "Gading Wonosari Airport",
    "gps_code": "WI1G",
    "freq": "",
    "Lat": -7.916865,
    "Lon": 110.565354,
    "Ele": 214.0
  },
  {
    "type": "small_airport",
    "name": "Menggala Airport",
    "gps_code": "WIAG",
    "freq": "",
    "Lat": -4.48943996429,
    "Lon": 105.217002869,
    "Ele": 29.9
  },
  {
    "type": "small_airport",
    "name": "Atang Senjaya Airport",
    "gps_code": "WIAJ",
    "freq": "",
    "Lat": -6.538819,
    "Lon": 106.755466,
    "Ele": 164.0
  },
  {
    "type": "small_airport",
    "name": "Sulaiman Airport",
    "gps_code": "WIAK",
    "freq": "",
    "Lat": -6.98278,
    "Lon": 107.572998,
    "Ele": 665.7
  },
  {
    "type": "medium_airport",
    "name": "Sultan Syarif Kasim II International Airport / Roesmin Nurjadin AFB",
    "gps_code": "WIBB",
    "freq": "120.800",
    "Lat": 0.458647,
    "Lon": 101.444321,
    "Ele": 31.1
  },
  {
    "type": "medium_airport",
    "name": "Pinang Kampai Airport",
    "gps_code": "WIBD",
    "freq": "122.600",
    "Lat": 1.609114,
    "Lon": 101.433492,
    "Ele": 16.8
  },
  {
    "type": "small_airport",
    "name": "Pulai Airport",
    "gps_code": "WIBI",
    "freq": "",
    "Lat": 0.218532,
    "Lon": 103.163037,
    "Ele": 6.4
  },
  {
    "type": "medium_airport",
    "name": "Japura Airport",
    "gps_code": "WIBJ",
    "freq": "122.800",
    "Lat": -0.352808,
    "Lon": 102.334999,
    "Ele": 18.9
  },
  {
    "type": "small_airport",
    "name": "Sultan Syarif Haroen Setia Negara Airport",
    "gps_code": "WIBL",
    "freq": "",
    "Lat": 0.499262,
    "Lon": 101.923391,
    "Ele": 12.8
  },
  {
    "type": "small_airport",
    "name": "Sungai Pakning Bengkalis Airport",
    "gps_code": "WIBS",
    "freq": "",
    "Lat": 1.37,
    "Lon": 102.139999,
    "Ele": 0.9
  },
  {
    "type": "small_airport",
    "name": "Raja Haji Abdullah Airport",
    "gps_code": "WIBT",
    "freq": "",
    "Lat": 1.05287,
    "Lon": 103.391517,
    "Ele": 4.9
  },
  {
    "type": "medium_airport",
    "name": "Kertajati International Airport",
    "gps_code": "WICA",
    "freq": "",
    "Lat": -6.647384,
    "Lon": 108.165561,
    "Ele": 40.8
  },
  {
    "type": "small_airport",
    "name": "Budiarto Airport",
    "gps_code": "WICB",
    "freq": "119.700",
    "Lat": -6.293171,
    "Lon": 106.57,
    "Ele": 46.0
  },
  {
    "type": "medium_airport",
    "name": "Husein Sastranegara International Airport",
    "gps_code": "WICC",
    "freq": "121.000",
    "Lat": -6.90063,
    "Lon": 107.575996,
    "Ele": 742.5
  },
  {
    "type": "small_airport",
    "name": "Cakrabhuwana  Airport",
    "gps_code": "WICD",
    "freq": "122.100",
    "Lat": -6.757,
    "Lon": 108.538849,
    "Ele": 27.1
  },
  {
    "type": "small_airport",
    "name": "Cibeureum Airport",
    "gps_code": "WICM",
    "freq": "122.600",
    "Lat": -7.3466,
    "Lon": 108.246002,
    "Ele": 349.9
  },
  {
    "type": "small_airport",
    "name": "Nusawiru Airport",
    "gps_code": "WICN",
    "freq": "122.000",
    "Lat": -7.719895,
    "Lon": 108.488995,
    "Ele": 4.9
  },
  {
    "type": "small_airport",
    "name": "Tambelan Airport",
    "gps_code": "WIDB",
    "freq": "",
    "Lat": 0.979922,
    "Lon": 107.564658,
    "Ele": 5.8
  },
  {
    "type": "medium_airport",
    "name": "Hang Nadim International Airport",
    "gps_code": "WIDD",
    "freq": "120.300",
    "Lat": 1.12103,
    "Lon": 104.119003,
    "Ele": 38.4
  },
  {
    "type": "small_airport",
    "name": "Tuanku Tambusai Airport",
    "gps_code": "WIDE",
    "freq": "118.100",
    "Lat": 0.845431,
    "Lon": 100.370154,
    "Ele": 46.0
  },
  {
    "type": "small_airport",
    "name": "Letung Airport",
    "gps_code": "WIDL",
    "freq": "",
    "Lat": 2.96447,
    "Lon": 105.75484,
    "Ele": 10.1
  },
  {
    "type": "small_airport",
    "name": "Matak Airport",
    "gps_code": "WIDM",
    "freq": "128.000",
    "Lat": 3.34812,
    "Lon": 106.258003,
    "Ele": 3.0
  },
  {
    "type": "small_airport",
    "name": "Raja Haji Fisabilillah International Airport",
    "gps_code": "WIDN",
    "freq": "120.300",
    "Lat": 0.92397,
    "Lon": 104.53341,
    "Ele": 15.8
  },
  {
    "type": "small_airport",
    "name": "Dabo Airport",
    "gps_code": "WIDS",
    "freq": "122.200",
    "Lat": -0.479611,
    "Lon": 104.579498,
    "Ele": 29.0
  },
  {
    "type": "small_airport",
    "name": "Muko Muko Airport",
    "gps_code": "WIGM",
    "freq": "",
    "Lat": -2.541058,
    "Lon": 101.087651,
    "Ele": 7.3
  },
  {
    "type": "small_airport",
    "name": "Wiladatika Airport",
    "gps_code": "WIHC",
    "freq": "",
    "Lat": -6.35643,
    "Lon": 106.900796,
    "Ele": 64.0
  },
  {
    "type": "medium_airport",
    "name": "Halim Perdanakusuma International Airport",
    "gps_code": "WIHH",
    "freq": "119.750",
    "Lat": -6.266610145568848,
    "Lon": 106.89099884033205,
    "Ele": 25.6
  },
  {
    "type": "small_airport",
    "name": "Pondok Cabe Air Base",
    "gps_code": "WIHP",
    "freq": "122.100",
    "Lat": -6.336959838867188,
    "Lon": 106.76499938964844,
    "Ele": 61.0
  },
  {
    "type": "large_airport",
    "name": "Soekarno-Hatta International Airport",
    "gps_code": "WIII",
    "freq": "119.750",
    "Lat": -6.12557,
    "Lon": 106.655998,
    "Ele": 10.4
  },
  {
    "type": "small_airport",
    "name": "Kalijati Airport",
    "gps_code": "WIIK",
    "freq": "",
    "Lat": -6.53139019012,
    "Lon": 107.658996582,
    "Ele": 110.0
  },
  {
    "type": "medium_airport",
    "name": "Radin Inten II International Airport",
    "gps_code": "WILL",
    "freq": "122.400",
    "Lat": -5.246803,
    "Lon": 105.182531,
    "Ele": 86.0
  },
  {
    "type": "small_airport",
    "name": "Muhammad Taufiq Kiemas Airport",
    "gps_code": "WILP",
    "freq": "",
    "Lat": -5.211562,
    "Lon": 103.936501,
    "Ele": 36.0
  },
  {
    "type": "small_airport",
    "name": "Way Jepara Airport",
    "gps_code": "WILW",
    "freq": "",
    "Lat": -5.051246,
    "Lon": 105.655461,
    "Ele": 31.4
  },
  {
    "type": "small_airport",
    "name": "Malikus Saleh Airport",
    "gps_code": "WIMA",
    "freq": "122.900",
    "Lat": 5.22668,
    "Lon": 96.950302,
    "Ele": 27.4
  },
  {
    "type": "medium_airport",
    "name": "Binaka Airport",
    "gps_code": "WIMB",
    "freq": "122.500",
    "Lat": 1.16628,
    "Lon": 97.704327,
    "Ele": 6.1
  },
  {
    "type": "medium_airport",
    "name": "Aek Godang Airport",
    "gps_code": "WIME",
    "freq": "122.800",
    "Lat": 1.4001,
    "Lon": 99.430496,
    "Ele": 281.0
  },
  {
    "type": "small_airport",
    "name": "Jenderal Besar Abdul Haris Nasution Airport",
    "gps_code": "WIMF",
    "freq": "",
    "Lat": 0.943995,
    "Lon": 99.534093,
    "Ele": 320.3
  },
  {
    "type": "medium_airport",
    "name": "Soewondo Air Force Base",
    "gps_code": "WIMK",
    "freq": "119.700",
    "Lat": 3.558425,
    "Lon": 98.672275,
    "Ele": 34.7
  },
  {
    "type": "large_airport",
    "name": "Kualanamu International Airport",
    "gps_code": "WIMM",
    "freq": "126.300",
    "Lat": 3.637847,
    "Lon": 98.870566,
    "Ele": 7.0
  },
  {
    "type": "small_airport",
    "name": "Silangit Airport",
    "gps_code": "WIMN",
    "freq": "658.900",
    "Lat": 2.25973,
    "Lon": 98.991898,
    "Ele": 1432.6
  },
  {
    "type": "small_airport",
    "name": "Sibisa Airport",
    "gps_code": "WIMP",
    "freq": "",
    "Lat": 2.601967,
    "Lon": 98.962381,
    "Ele": 1290.5
  },
  {
    "type": "medium_airport",
    "name": "Dr. Ferdinand Lumban Tobing Airport",
    "gps_code": "WIMS",
    "freq": "122.300",
    "Lat": 1.557127,
    "Lon": 98.887145,
    "Ele": 10.1
  },
  {
    "type": "medium_airport",
    "name": "Alas Leuser Airport",
    "gps_code": "WIMU",
    "freq": "",
    "Lat": 3.391456,
    "Lon": 97.863726,
    "Ele": 127.7
  },
  {
    "type": "small_airport",
    "name": "Bengkayang Airport",
    "gps_code": "WIOB",
    "freq": "",
    "Lat": 0.8333330154418945,
    "Lon": 109.48332977294922,
    "Ele": 89.6
  },
  {
    "type": "small_airport",
    "name": "H A S Hanandjoeddin International Airport",
    "gps_code": "WIOD",
    "freq": "118.800",
    "Lat": -2.744109,
    "Lon": 107.754535,
    "Ele": 50.0
  },
  {
    "type": "medium_airport",
    "name": "Nanga Pinoh Airport",
    "gps_code": "WIOG",
    "freq": "122.500",
    "Lat": -0.34864,
    "Lon": 111.746155,
    "Ele": 37.5
  },
  {
    "type": "small_airport",
    "name": "Liku Airport",
    "gps_code": "WIOH",
    "freq": "",
    "Lat": 1.737455,
    "Lon": 109.324002,
    "Ele": 7.6
  },
  {
    "type": "small_airport",
    "name": "Singkawang Airport",
    "gps_code": "WIOI",
    "freq": "",
    "Lat": 1.0756800174713137,
    "Lon": 109.68800354003906,
    "Ele": 84.1
  },
  {
    "type": "medium_airport",
    "name": "Rahadi Osman Airport",
    "gps_code": "WIOK",
    "freq": "122.300",
    "Lat": -1.817165,
    "Lon": 109.963469,
    "Ele": 14.0
  },
  {
    "type": "medium_airport",
    "name": "Ranai Airport",
    "gps_code": "WION",
    "freq": "112.100",
    "Lat": 3.90871,
    "Lon": 108.388,
    "Ele": 2.1
  },
  {
    "type": "medium_airport",
    "name": "Supadio Airport",
    "gps_code": "WIOO",
    "freq": "119.000",
    "Lat": -0.150711,
    "Lon": 109.403999,
    "Ele": 3.0
  },
  {
    "type": "medium_airport",
    "name": "Pangsuma Airport",
    "gps_code": "WIOP",
    "freq": "123.500",
    "Lat": 0.834579,
    "Lon": 112.940217,
    "Ele": 90.5
  },
  {
    "type": "medium_airport",
    "name": "Tebelian Airport",
    "gps_code": "WIOS",
    "freq": "",
    "Lat": -0.045214,
    "Lon": 111.458049,
    "Ele": 29.6
  },
  {
    "type": "small_airport",
    "name": "Babang Airstrip",
    "gps_code": "WIOV",
    "freq": "",
    "Lat": 1.340038,
    "Lon": 109.911081,
    "Ele": 41.1
  },
  {
    "type": "small_airport",
    "name": "Sultan Thaha Airport",
    "gps_code": "WIPA",
    "freq": "118.400",
    "Lat": -1.638685,
    "Lon": 103.645063,
    "Ele": 25.0
  },
  {
    "type": "small_airport",
    "name": "Silampari Airport",
    "gps_code": "WIPB",
    "freq": "",
    "Lat": -3.288165,
    "Lon": 102.91449,
    "Ele": 113.1
  },
  {
    "type": "small_airport",
    "name": "Banding Agung Airport",
    "gps_code": "WIPD",
    "freq": "",
    "Lat": -4.78702,
    "Lon": 103.932999,
    "Ele": 640.1
  },
  {
    "type": "small_airport",
    "name": "Kuala Tungkal Airport",
    "gps_code": "WIPF",
    "freq": "",
    "Lat": -0.8166670203208923,
    "Lon": 103.46666717529295,
    "Ele": 3.7
  },
  {
    "type": "small_airport",
    "name": "Muara Bungo Airport",
    "gps_code": "WIPI",
    "freq": "",
    "Lat": -1.541635,
    "Lon": 102.181613,
    "Ele": 58.5
  },
  {
    "type": "medium_airport",
    "name": "Depati Amir Airport",
    "gps_code": "WIPK",
    "freq": "123.600",
    "Lat": -2.1622,
    "Lon": 106.139,
    "Ele": 33.2
  },
  {
    "type": "medium_airport",
    "name": "Fatmawati Soekarno Airport",
    "gps_code": "WIPL",
    "freq": "122.200",
    "Lat": -3.8637,
    "Lon": 102.338997,
    "Ele": 15.2
  },
  {
    "type": "small_airport",
    "name": "Gatot Subrato Airport",
    "gps_code": "WIPO",
    "freq": "123.700",
    "Lat": -4.39177,
    "Lon": 104.401001,
    "Ele": 137.2
  },
  {
    "type": "medium_airport",
    "name": "Sultan Mahmud Badaruddin II Airport",
    "gps_code": "WIPP",
    "freq": "119.200",
    "Lat": -2.897653,
    "Lon": 104.698147,
    "Ele": 14.9
  },
  {
    "type": "medium_airport",
    "name": "Pendopo Airport",
    "gps_code": "WIPQ",
    "freq": "122.100",
    "Lat": -3.2860701084136963,
    "Lon": 103.87999725341795,
    "Ele": 56.1
  },
  {
    "type": "medium_airport",
    "name": "Minangkabau International Airport",
    "gps_code": "WIPT",
    "freq": "124.000",
    "Lat": -0.786917,
    "Lon": 100.280998,
    "Ele": 5.5
  },
  {
    "type": "small_airport",
    "name": "Atung Bungsu Airport",
    "gps_code": "WIPY",
    "freq": "",
    "Lat": -4.0225,
    "Lon": 103.379167,
    "Ele": 12.2
  },
  {
    "type": "small_airport",
    "name": "Teratai Airstrip",
    "gps_code": "WIQD",
    "freq": "",
    "Lat": 0.4,
    "Lon": 110.75,
    "Ele": 60.0
  },
  {
    "type": "small_airport",
    "name": "Ulak Muid Aistrip",
    "gps_code": "WIQE",
    "freq": "",
    "Lat": -0.676667,
    "Lon": 111.526111,
    "Ele": 106.1
  },
  {
    "type": "small_airport",
    "name": "Smart Semelagi Airport",
    "gps_code": "WISA",
    "freq": "",
    "Lat": 0.998107,
    "Lon": 109.051913,
    "Ele": 3.0
  },
  {
    "type": "small_airport",
    "name": "Teuku Cut Ali Airport",
    "gps_code": "WITA",
    "freq": "112.800",
    "Lat": 3.16904,
    "Lon": 97.288299,
    "Ele": 5.2
  },
  {
    "type": "medium_airport",
    "name": "Cut Nyak Dhien Airport",
    "gps_code": "WITC",
    "freq": "",
    "Lat": 4.040998,
    "Lon": 96.253312,
    "Ele": 3.0
  },
  {
    "type": "small_airport",
    "name": "Lasikin Airport",
    "gps_code": "WITG",
    "freq": "",
    "Lat": 2.411328,
    "Lon": 96.327722,
    "Ele": 5.8
  },
  {
    "type": "medium_airport",
    "name": "Rembele Airport",
    "gps_code": "WITK",
    "freq": "",
    "Lat": 4.72113,
    "Lon": 96.851943,
    "Ele": 1416.7
  },
  {
    "type": "medium_airport",
    "name": "Lhok Sukon Airport",
    "gps_code": "WITL",
    "freq": "130.450",
    "Lat": 5.06951,
    "Lon": 97.259201,
    "Ele": 8.5
  },