[
  {
    "type": "small_airport",
    "name": "Bella Yella Airport",
    "gps_code": "BYL",
    "freq": "",
    "Lat": 7.36916666667,
    "Lon": -9.99372222222,
    "Ele": 210.3
  },
  {
    "type": "small_airport",
    "name": "Foya Airport",
    "gps_code": "FOY",
    "freq": "",
    "Lat": 8.3513,
    "Lon": -10.2269,
    "Ele": 451.1
  },
  {
    "type": "small_airport",
    "name": "Buchanan Airport",
    "gps_code": "GLBU",
    "freq": "",
    "Lat": 5.905503,
    "Lon": -10.058262,
    "Ele": 12.5
  },
  {
    "type": "small_airport",
    "name": "Cape Palmas Airport",
    "gps_code": "GLCP",
    "freq": "",
    "Lat": 4.3790202140808105,
    "Lon": -7.696949958801269,
    "Ele": 6.1
  },
  {
    "type": "small_airport",
    "name": "Greenville/Sinoe Airport",
    "gps_code": "GLGE",
    "freq": "",
    "Lat": 5.032124,
    "Lon": -9.064236,
    "Ele": 3.0
  },
  {
    "type": "small_airport",
    "name": "Lamco Airport",
    "gps_code": "GLLB",
    "freq": "",
    "Lat": 5.856911,
    "Lon": -10.021473,
    "Ele": 9.1
  },
  {
    "type": "medium_airport",
    "name": "Spriggs Payne Airport",
    "gps_code": "GLMR",
    "freq": "124.500",
    "Lat": 6.28906,
    "Lon": -10.7587,
    "Ele": 7.6
  },
  {
    "type": "small_airport",
    "name": "Nimba Airport",
    "gps_code": "GLNA",
    "freq": "",
    "Lat": 7.494459,
    "Lon": -8.584514,
    "Ele": 497.4
  },
  {
    "type": "large_airport",
    "name": "Roberts International Airport",
    "gps_code": "GLRB",
    "freq": "345.200",
    "Lat": 6.23379,
    "Lon": -10.3623,
    "Ele": 9.4
  },
  {
    "type": "small_airport",
    "name": "Sasstown Airport",
    "gps_code": "GLST",
    "freq": "",
    "Lat": 4.681845,
    "Lon": -8.434668,
    "Ele": 1.8
  },
  {
    "type": "small_airport",
    "name": "Tchien Airport",
    "gps_code": "GLTN",
    "freq": "",
    "Lat": 6.04565,
    "Lon": -8.138723,
    "Ele": 240.8
  },
  {
    "type": "small_airport",
    "name": "Voinjama Airport",
    "gps_code": "GLVA",
    "freq": "",
    "Lat": 8.32347,
    "Lon": -9.769249,
    "Ele": 426.7
  },
  {
    "type": "small_airport",
    "name": "Grand Cess Airport",
    "gps_code": "GRC",
    "freq": "",
    "Lat": 4.571,
    "Lon": -8.2076,
    "Ele": 8.5
  },
  {
    "type": "small_airport",
    "name": "Butaw Airport",
    "gps_code": "LR-0001",
    "freq": "",
    "Lat": 5.13797,
    "Lon": -9.08692,
    "Ele": 0.0
  },
  {
    "type": "small_airport",
    "name": "United Methodist Mission Airfield",
    "gps_code": "LR-0002",
    "freq": "",
    "Lat": 7.240358,
    "Lon": -8.979178,
    "Ele": 0.0
  },
  {
    "type": "small_airport",
    "name": "Gozohn Camp Airport",
    "gps_code": "LR-0003",
    "freq": "",
    "Lat": 6.098453,
    "Lon": -9.770522,
    "Ele": 131.1
  },
  {
    "type": "small_airport",
    "name": "Gbarnga Airfield",
    "gps_code": "LR-0004",
    "freq": "",
    "Lat": 7.04268,
    "Lon": -9.48564,
    "Ele": 0.0
  },
  {
    "type": "small_airport",
    "name": "River Cess Airport and Heliport",
    "gps_code": "RVC",
    "freq": "",
    "Lat": 5.472469,
    "Lon": -9.58546,
    "Ele": 8.2
  },
  {
    "type": "small_airport",
    "name": "Tapeta Airport",
    "gps_code": "TPT",
    "freq": "",
    "Lat": 6.4948,
    "Lon": -8.873,
    "Ele": 265.2
  }
]