[
  {
    "type": "small_airport",
    "name": "Malo Konjari Sport Airfield",
    "gps_code": "LW66",
    "freq": "",
    "Lat": 41.333099,
    "Lon": 21.4491,
    "Ele": 620.0
  },
  {
    "type": "small_airport",
    "name": "Kumanovo Airfield",
    "gps_code": "LW67",
    "freq": "",
    "Lat": 42.154242,
    "Lon": 21.699328,
    "Ele": 370.9
  },
  {
    "type": "small_airport",
    "name": "Veles Airfield",
    "gps_code": "LW70",
    "freq": "",
    "Lat": 41.758796,
    "Lon": 21.842451,
    "Ele": 338.9
  },
  {
    "type": "small_airport",
    "name": "Peshirovo Sveti Nikole Airfield",
    "gps_code": "LW71",
    "freq": "",
    "Lat": 41.828073,
    "Lon": 21.986585,
    "Ele": 242.0
  },
  {
    "type": "small_airport",
    "name": "Å tip Airstrip",
    "gps_code": "LW73",
    "freq": "",
    "Lat": 41.798058,
    "Lon": 22.109863,
    "Ele": 274.3
  },
  {
    "type": "small_airport",
    "name": "Logovardi Sport Aerodrome",
    "gps_code": "LW74",
    "freq": "",
    "Lat": 41.017721,
    "Lon": 21.426186,
    "Ele": 594.4
  },
  {
    "type": "small_airport",
    "name": "Stenkovec Brazda Airfield",
    "gps_code": "LW75",
    "freq": "123.500",
    "Lat": 42.0594,
    "Lon": 21.388514,
    "Ele": 350.5
  },
  {
    "type": "medium_airport",
    "name": "Ohrid St. Paul the Apostle Airport",
    "gps_code": "LWOH",
    "freq": "119.200",
    "Lat": 41.18,
    "Lon": 20.7423,
    "Ele": 705.0
  },
  {
    "type": "large_airport",
    "name": "Skopje International Airport",
    "gps_code": "LWSK",
    "freq": "120.300",
    "Lat": 41.958087,
    "Lon": 21.622581,
    "Ele": 238.0
  },
  {
    "type": "small_airport",
    "name": "Suchevo Recreational Airfield",
    "gps_code": "LWST",
    "freq": "",
    "Lat": 41.759745,
    "Lon": 22.147781,
    "Ele": 0.0
  },
  {
    "type": "small_airport",
    "name": "Radnja Airstrip",
    "gps_code": "MK-0003",
    "freq": "",
    "Lat": 41.26633,
    "Lon": 22.18748,
    "Ele": 0.0
  },
  {
    "type": "small_airport",
    "name": "Ponikva Highway Airstrip",
    "gps_code": "MK-0010",
    "freq": "",
    "Lat": 42.025968,
    "Lon": 22.355895,
    "Ele": 1571.9
  },
  {
    "type": "small_airport",
    "name": "Krivolak Airstrip",
    "gps_code": "MK-0011",
    "freq": "",
    "Lat": 41.540292,
    "Lon": 22.104539,
    "Ele": 128.3
  }
]