[
  {
    "type": "small_airport",
    "name": "Erdenet Airport",
    "gps_code": "ERT",
    "freq": "",
    "Lat": 48.983056,
    "Lon": 104.150556,
    "Ele": 1280.2
  },
  {
    "type": "small_airport",
    "name": "Bulgan Airport",
    "gps_code": "MN-0003",
    "freq": "",
    "Lat": 44.09521,
    "Lon": 103.53464,
    "Ele": 1314.0
  },
  {
    "type": "medium_airport",
    "name": "Shine Bulagin Hural Air Base",
    "gps_code": "MN-0005",
    "freq": "",
    "Lat": 45.9467,
    "Lon": 109.1233,
    "Ele": 0.0
  },
  {
    "type": "small_airport",
    "name": "Nalayh Air Base",
    "gps_code": "MN-5M",
    "freq": "",
    "Lat": 47.7417,
    "Lon": 107.3717,
    "Ele": 0.0
  },
  {
    "type": "small_airport",
    "name": "Bayan Suma Airport",
    "gps_code": "MN-5Z",
    "freq": "",
    "Lat": 47.3667,
    "Lon": 107.4567,
    "Ele": 0.0
  },
  {
    "type": "small_airport",
    "name": "Bayantal Air Base",
    "gps_code": "MN-60",
    "freq": "",
    "Lat": 46.5767,
    "Lon": 108.3233,
    "Ele": 0.0
  },
  {
    "type": "small_airport",
    "name": "Jibhalanta Airport",
    "gps_code": "MN-ULZ",
    "freq": "",
    "Lat": 47.7146987915,
    "Lon": 96.8471984863,
    "Ele": 0.0
  },
  {
    "type": "medium_airport",
    "name": "Arvaikheer Airport",
    "gps_code": "ZMAH",
    "freq": "",
    "Lat": 46.250301361083984,
    "Lon": 102.802001953125,
    "Ele": 1808.1
  },
  {
    "type": "medium_airport",
    "name": "Altai Airport",
    "gps_code": "ZMAT",
    "freq": "",
    "Lat": 46.37639999389648,
    "Lon": 96.22109985351562,
    "Ele": 2212.8
  },
  {
    "type": "small_airport",
    "name": "Binder Airport",
    "gps_code": "ZMBD",
    "freq": "",
    "Lat": 48.6067008972168,
    "Lon": 110.60800170898438,
    "Ele": 1043.0
  },
  {
    "type": "medium_airport",
    "name": "Bayankhongor Airport",
    "gps_code": "ZMBH",
    "freq": "130.000",
    "Lat": 46.16329956054688,
    "Lon": 100.7040023803711,
    "Ele": 1854.7
  },
  {
    "type": "medium_airport",
    "name": "Bulgan Airport",
    "gps_code": "ZMBN",
    "freq": "",
    "Lat": 48.85499954223633,
    "Lon": 103.47599792480467,
    "Ele": 1314.0
  },
  {
    "type": "small_airport",
    "name": "Bulagtai Resort Airport",
    "gps_code": "ZMBR",
    "freq": "",
    "Lat": 43.749304,
    "Lon": 104.114985,
    "Ele": 1420.1
  },
  {
    "type": "small_airport",
    "name": "Bulgan Sum Airport",
    "gps_code": "ZMBS",
    "freq": "",
    "Lat": 46.100601,
    "Lon": 91.584198,
    "Ele": 1195.1
  },
  {
    "type": "medium_airport",
    "name": "Baruun Urt Airport",
    "gps_code": "ZMBU",
    "freq": "130.000",
    "Lat": 46.660301208496094,
    "Lon": 113.28500366210938,
    "Ele": 976.9
  },
  {
    "type": "medium_airport",
    "name": "Choibalsan Airport",
    "gps_code": "ZMCD",
    "freq": "130.000",
    "Lat": 48.13570022583008,
    "Lon": 114.64600372314452,
    "Ele": 748.9
  },
  {
    "type": "large_airport",
    "name": "Ulaanbaatar Chinggis Khaan International Airport",
    "gps_code": "ZMCK",
    "freq": "120.000",
    "Lat": 47.646916,
    "Lon": 106.819833,
    "Ele": 1366.1
  },
  {
    "type": "small_airport",
    "name": "Dadal Airport",
    "gps_code": "ZMDA",
    "freq": "",
    "Lat": 49.0124,
    "Lon": 111.509,
    "Ele": 981.5
  },
  {
    "type": "small_airport",
    "name": "Donoi Airport",
    "gps_code": "ZMDN",
    "freq": "",
    "Lat": 47.7093,
    "Lon": 96.5258,
    "Ele": 1767.8
  },
  {
    "type": "medium_airport",
    "name": "Dalanzadgad Airport",
    "gps_code": "ZMDZ",
    "freq": "128.000",
    "Lat": 43.608628,
    "Lon": 104.367734,
    "Ele": 1459.1
  },
  {
    "type": "small_airport",
    "name": "Ovoot Airport",
    "gps_code": "ZMGT",
    "freq": "",
    "Lat": 43.01192,
    "Lon": 101.333781,
    "Ele": 1576.1
  },
  {
    "type": "small_airport",
    "name": "Khatgal Airport",
    "gps_code": "ZMHG",
    "freq": "",
    "Lat": 50.435988,
    "Lon": 100.139532,
    "Ele": 1676.4
  },
  {
    "type": "small_airport",
    "name": "Kharkhorin Airport",
    "gps_code": "ZMHH",
    "freq": "",
    "Lat": 47.246667,
    "Lon": 102.826111,
    "Ele": 1450.5
  },
  {
    "type": "small_airport",
    "name": "Khujirt Airport",
    "gps_code": "ZMHU",
    "freq": "",
    "Lat": 46.9258003235,
    "Lon": 102.773002625,
    "Ele": 1683.1
  },
  {
    "type": "medium_airport",
    "name": "Khovd Airport",
    "gps_code": "ZMKD",
    "freq": "130.000",
    "Lat": 47.9541015625,
    "Lon": 91.6281967163086,
    "Ele": 1492.9
  },
  {
    "type": "small_airport",
    "name": "Mandalgobi Airport",
    "gps_code": "ZMMG",
    "freq": "",
    "Lat": 45.7380981445,
    "Lon": 106.268997192,
    "Ele": 1386.8
  },
  {
    "type": "medium_airport",
    "name": "Mörön Airport",
    "gps_code": "ZMMN",
    "freq": "128.000",
    "Lat": 49.66329956054688,
    "Lon": 100.0989990234375,
    "Ele": 1302.1
  },
  {
    "type": "small_airport",
    "name": "Khanbumbat Airport",
    "gps_code": "ZMOT",
    "freq": "",
    "Lat": 43.145552,
    "Lon": 106.843509,
    "Ele": 1196.0
  },
  {
    "type": "small_airport",
    "name": "Nalaikh/Sky Friends Airport",
    "gps_code": "ZMSF",
    "freq": "",
    "Lat": 47.773056,
    "Lon": 107.437778,
    "Ele": 1471.9
  },
  {
    "type": "small_airport",
    "name": "Sainshand Airport",
    "gps_code": "ZMSH",
    "freq": "",
    "Lat": 44.984831,
    "Lon": 110.17651,
    "Ele": 921.1
  },
  {
    "type": "small_airport",
    "name": "Tsetserleg Airport",
    "gps_code": "ZMTG",
    "freq": "",
    "Lat": 47.461476,
    "Lon": 101.483804,
    "Ele": 1685.5
  },
  {
    "type": "small_airport",
    "name": "Tosontsengel Airport",
    "gps_code": "ZMTL",
    "freq": "",
    "Lat": 48.73887,
    "Lon": 98.2941,
    "Ele": 1709.9
  },
  {
    "type": "small_airport",
    "name": "Umnugobi/Tavan Tolgoi Airport",
    "gps_code": "ZMTT",
    "freq": "",
    "Lat": 43.773667,
    "Lon": 105.578667,
    "Ele": 1460.9
  },
  {
    "type": "medium_airport",
    "name": "Buyant-Ukhaa International Airport",
    "gps_code": "ZMUB",
    "freq": "120.000",
    "Lat": 47.843102,
    "Lon": 106.766998,
    "Ele": 1330.1
  },
  {
    "type": "small_airport",
    "name": "Ulaangom Airport",
    "gps_code": "ZMUG",
    "freq": "",
    "Lat": 50.066588,
    "Lon": 91.938273,
    "Ele": 0.0
  },
  {
    "type": "small_airport",
    "name": "Öndörkhaan Airport",
    "gps_code": "ZMUH",
    "freq": "",
    "Lat": 47.30486,
    "Lon": 110.6092,
    "Ele": 1039.4
  },
  {
    "type": "small_airport",
    "name": "Ölgii Mongolei Airport",
    "gps_code": "ZMUL",
    "freq": "",
    "Lat": 48.993301,
    "Lon": 89.922501,
    "Ele": 1747.1
  }
]