[
  {
    "type": "small_airport",
    "name": "Bangula Airport",
    "gps_code": "FWBG",
    "freq": "",
    "Lat": -16.578408,
    "Lon": 35.116148,
    "Ele": 92.0
  },
  {
    "type": "small_airport",
    "name": "Chilumba Private Airport",
    "gps_code": "FWCB",
    "freq": "",
    "Lat": -10.439073,
    "Lon": 34.246055,
    "Ele": 491.0
  },
  {
    "type": "small_airport",
    "name": "Chelinda Malawi Airport",
    "gps_code": "FWCD",
    "freq": "",
    "Lat": -10.55,
    "Lon": 33.799999,
    "Ele": 2364.9
  },
  {
    "type": "medium_airport",
    "name": "Chileka International Airport",
    "gps_code": "FWCL",
    "freq": "124.900",
    "Lat": -15.679100036621094,
    "Lon": 34.9739990234375,
    "Ele": 778.8
  },
  {
    "type": "small_airport",
    "name": "Club Makokola Airport",
    "gps_code": "FWCM",
    "freq": "",
    "Lat": -14.306483,
    "Lon": 35.131477,
    "Ele": 483.7
  },
  {
    "type": "small_airport",
    "name": "Ntchisi Airport",
    "gps_code": "FWCS",
    "freq": "",
    "Lat": -13.3758,
    "Lon": 33.864498,
    "Ele": 1310.9
  },
  {
    "type": "small_airport",
    "name": "Chitipa Airport",
    "gps_code": "FWCT",
    "freq": "",
    "Lat": -9.7,
    "Lon": 33.266998,
    "Ele": 1301.5
  },
  {
    "type": "medium_airport",
    "name": "Dwangwa Airport",
    "gps_code": "FWDW",
    "freq": "",
    "Lat": -12.517527,
    "Lon": 34.131877,
    "Ele": 489.2
  },
  {
    "type": "medium_airport",
    "name": "Karonga Airport",
    "gps_code": "FWKA",
    "freq": "118.100",
    "Lat": -9.953571,
    "Lon": 33.893264,
    "Ele": 538.0
  },
  {
    "type": "small_airport",
    "name": "Kasungu Airport",
    "gps_code": "FWKG",
    "freq": "",
    "Lat": -13.0146,
    "Lon": 33.468601,
    "Ele": 1057.7
  },
  {
    "type": "medium_airport",
    "name": "Kamuzu International Airport",
    "gps_code": "FWKI",
    "freq": "128.000",
    "Lat": -13.7894,
    "Lon": 33.780998,
    "Ele": 1229.9
  },
  {
    "type": "small_airport",
    "name": "Old Lilongwe Airport",
    "gps_code": "FWLE",
    "freq": "120.600",
    "Lat": -13.966,
    "Lon": 33.701801,
    "Ele": 1134.5
  },
  {
    "type": "small_airport",
    "name": "Likoma Island Airport",
    "gps_code": "FWLK",
    "freq": "",
    "Lat": -12.079787,
    "Lon": 34.736253,
    "Ele": 487.7
  },
  {
    "type": "small_airport",
    "name": "Lifupa Airport",
    "gps_code": "FWLP",
    "freq": "",
    "Lat": -13.05,
    "Lon": 33.150002,
    "Ele": 1013.8
  },
  {
    "type": "small_airport",
    "name": "Mchinji Airport",
    "gps_code": "FWMC",
    "freq": "",
    "Lat": -13.8,
    "Lon": 32.900002,
    "Ele": 1189.0
  },
  {
    "type": "small_airport",
    "name": "Monkey Bay Airport",
    "gps_code": "FWMY",
    "freq": "",
    "Lat": -14.0836000443,
    "Lon": 34.9197006226,
    "Ele": 481.6
  },
  {
    "type": "small_airport",
    "name": "Mzimba Airport",
    "gps_code": "FWMZ",
    "freq": "",
    "Lat": -11.883000373840332,
    "Lon": 33.617000579833984,
    "Ele": 1353.3
  },
  {
    "type": "small_airport",
    "name": "Ngabu Airport",
    "gps_code": "FWNB",
    "freq": "",
    "Lat": -16.498324,
    "Lon": 34.864218,
    "Ele": 137.2
  },
  {
    "type": "small_airport",
    "name": "Nsanje Airport",
    "gps_code": "FWSJ",
    "freq": "",
    "Lat": -16.921115,
    "Lon": 35.25269,
    "Ele": 61.0
  },
  {
    "type": "small_airport",
    "name": "Salima Airport",
    "gps_code": "FWSM",
    "freq": "",
    "Lat": -13.755893,
    "Lon": 34.584188,
    "Ele": 514.5
  },
  {
    "type": "small_airport",
    "name": "Nchalo Sucoma Airport",
    "gps_code": "FWSU",
    "freq": "",
    "Lat": -16.269338,
    "Lon": 34.877216,
    "Ele": 70.1
  },
  {
    "type": "small_airport",
    "name": "Mtakatata Airport",
    "gps_code": "FWTK",
    "freq": "",
    "Lat": -14.217000007629396,
    "Lon": 34.53300094604492,
    "Ele": 525.8
  },
  {
    "type": "medium_airport",
    "name": "Mzuzu Airport",
    "gps_code": "FWUU",
    "freq": "118.100",
    "Lat": -11.4447,
    "Lon": 34.011799,
    "Ele": 1254.3
  },
  {
    "type": "small_airport",
    "name": "Zomba Airport",
    "gps_code": "FWZA",
    "freq": "",
    "Lat": -15.386309,
    "Lon": 35.383575,
    "Ele": 807.7
  },
  {
    "type": "small_airport",
    "name": "Chintheche Aerodrome",
    "gps_code": "MW-0001",
    "freq": "",
    "Lat": -11.8353,
    "Lon": 34.16446,
    "Ele": 502.9
  },
  {
    "type": "small_airport",
    "name": "Mvuu Camp Airport",
    "gps_code": "VUU",
    "freq": "",
    "Lat": -14.838611,
    "Lon": 35.301389,
    "Ele": 487.7
  }
]