[
  {
    "type": "small_airport",
    "name": "Bahja Airport",
    "gps_code": "BJQ",
    "freq": "",
    "Lat": 19.8730555556,
    "Lon": 56.0677777778,
    "Ele": 157.0
  },
  {
    "type": "small_airport",
    "name": "Dibba Airport",
    "gps_code": "OM-0001",
    "freq": "",
    "Lat": 25.614229,
    "Lon": 56.2444,
    "Ele": 13.7
  },
  {
    "type": "small_airport",
    "name": "Adam Airport",
    "gps_code": "OM-0002",
    "freq": "",
    "Lat": 22.4919444444,
    "Lon": 57.3838888889,
    "Ele": 327.7
  },
  {
    "type": "large_airport",
    "name": "Duqm International Airport",
    "gps_code": "OM-0003",
    "freq": "",
    "Lat": 19.501944,
    "Lon": 57.634167,
    "Ele": 110.9
  },
  {
    "type": "medium_airport",
    "name": "Mussanah Airport",
    "gps_code": "OM-0004",
    "freq": "",
    "Lat": 23.640556,
    "Lon": 57.4875,
    "Ele": 113.4
  },
  {
    "type": "medium_airport",
    "name": "Ras al Hadd Airport",
    "gps_code": "OM-0007",
    "freq": "",
    "Lat": 22.25691,
    "Lon": 59.74067,
    "Ele": 0.0
  },
  {
    "type": "small_airport",
    "name": "Madha Airport",
    "gps_code": "OM-0008",
    "freq": "",
    "Lat": 25.28637,
    "Lon": 56.342934,
    "Ele": 0.0
  },
  {
    "type": "small_airport",
    "name": "Oman Flying Club Airport",
    "gps_code": "OM-0009",
    "freq": "",
    "Lat": 23.50882,
    "Lon": 58.24631,
    "Ele": 117.0
  },
  {
    "type": "small_airport",
    "name": "Rawdah Airstrip",
    "gps_code": "OM-0010",
    "freq": "",
    "Lat": 25.86257,
    "Lon": 56.28591,
    "Ele": 402.9
  },
  {
    "type": "small_airport",
    "name": "Umm al Ghanam Airport",
    "gps_code": "OM-0011",
    "freq": "",
    "Lat": 26.36779,
    "Lon": 56.3568,
    "Ele": 10.4
  },
  {
    "type": "small_airport",
    "name": "Limah Airstrip",
    "gps_code": "OM-0013",
    "freq": "",
    "Lat": 25.94993,
    "Lon": 56.41864,
    "Ele": 11.0
  },
  {
    "type": "small_airport",
    "name": "Mursays Airport",
    "gps_code": "OM-0020",
    "freq": "",
    "Lat": 20.49128,
    "Lon": 58.79389,
    "Ele": 25.0
  },
  {
    "type": "small_airport",
    "name": "Mudayy Airport",
    "gps_code": "OM-0023",
    "freq": "",
    "Lat": 17.46854,
    "Lon": 53.36056,
    "Ele": 572.7
  },
  {
    "type": "small_airport",
    "name": "Maqshin Airport",
    "gps_code": "OM-0025",
    "freq": "",
    "Lat": 19.53667,
    "Lon": 54.8847,
    "Ele": 139.0
  },
  {
    "type": "small_airport",
    "name": "Yibal West Airport",
    "gps_code": "OM-0027",
    "freq": "",
    "Lat": 22.18087,
    "Lon": 55.99709,
    "Ele": 103.9
  },
  {
    "type": "small_airport",
    "name": "Sarfayt Airport",
    "gps_code": "OM-0036",
    "freq": "",
    "Lat": 16.7011,
    "Lon": 53.09786,
    "Ele": 1328.9
  },
  {
    "type": "small_airport",
    "name": "Manston Air Base",
    "gps_code": "OO42",
    "freq": "",
    "Lat": 16.990400314331055,
    "Lon": 53.35879898071289,
    "Ele": 969.9
  },
  {
    "type": "small_airport",
    "name": "Butabul Airport",
    "gps_code": "OOBB",
    "freq": "",
    "Lat": 21.178,
    "Lon": 55.463682,
    "Ele": 99.1
  },
  {
    "type": "small_airport",
    "name": "Buraimi Airport",
    "gps_code": "OOBR",
    "freq": "",
    "Lat": 24.241626,
    "Lon": 55.783674,
    "Ele": 295.7
  },
  {
    "type": "small_airport",
    "name": "Fahud Airport",
    "gps_code": "OOFD",
    "freq": "",
    "Lat": 22.354759,
    "Lon": 56.484146,
    "Ele": 168.2
  },
  {
    "type": "small_airport",
    "name": "Qarn Alam Airport",
    "gps_code": "OOGB",
    "freq": "",
    "Lat": 21.377199,
    "Lon": 57.056293,
    "Ele": 135.0
  },
  {
    "type": "small_airport",
    "name": "Haima Airport",
    "gps_code": "OOHA",
    "freq": "",
    "Lat": 19.975608,
    "Lon": 56.282444,
    "Ele": 121.9
  },
  {
    "type": "small_airport",
    "name": "Ibra Airport",
    "gps_code": "OOIA",
    "freq": "",
    "Lat": 22.732778,
    "Lon": 58.513611,
    "Ele": 457.2
  },
  {
    "type": "small_airport",
    "name": "Ibri Airport",
    "gps_code": "OOII",
    "freq": "",
    "Lat": 23.18626,
    "Lon": 56.43333,
    "Ele": 325.8
  },
  {
    "type": "small_airport",
    "name": "Izki Air Base",
    "gps_code": "OOIZ",
    "freq": "",
    "Lat": 22.892627,
    "Lon": 57.759094,
    "Ele": 518.2
  },
  {
    "type": "small_airport",
    "name": "Ja'Aluni Airport",
    "gps_code": "OOJA",
    "freq": "",
    "Lat": 19.4749,
    "Lon": 57.3083,
    "Ele": 170.7
  },
  {
    "type": "medium_airport",
    "name": "Khasab Airport",
    "gps_code": "OOKB",
    "freq": "",
    "Lat": 26.171,
    "Lon": 56.240601,
    "Ele": 30.5
  },
  {
    "type": "small_airport",
    "name": "Lekhwair Airport",
    "gps_code": "OOLK",
    "freq": "",
    "Lat": 22.804866,
    "Lon": 55.372801,
    "Ele": 107.9
  },
  {
    "type": "medium_airport",
    "name": "RAFO Masirah",
    "gps_code": "OOMA",
    "freq": "121.300",
    "Lat": 20.6754,
    "Lon": 58.890499,
    "Ele": 19.5
  },
  {
    "type": "large_airport",
    "name": "Muscat International Airport",
    "gps_code": "OOMS",
    "freq": "121.200",
    "Lat": 23.5933,
    "Lon": 58.284401,
    "Ele": 14.6
  },
  {
    "type": "small_airport",
    "name": "Marmul Airport",
    "gps_code": "OOMX",
    "freq": "",
    "Lat": 18.138999,
    "Lon": 55.179005,
    "Ele": 281.9
  },
  {
    "type": "medium_airport",
    "name": "Salalah Airport",
    "gps_code": "OOSA",
    "freq": "119.100",
    "Lat": 17.038700103759766,
    "Lon": 54.09130096435547,
    "Ele": 22.3
  },
  {
    "type": "small_airport",
    "name": "Sohar Airport",
    "gps_code": "OOSH",
    "freq": "",
    "Lat": 24.38604,
    "Lon": 56.62541,
    "Ele": 6.1
  },
  {
    "type": "small_airport",
    "name": "Saiq Airport",
    "gps_code": "OOSQ",
    "freq": "",
    "Lat": 23.075545,
    "Lon": 57.643271,
    "Ele": 1981.2
  },
  {
    "type": "medium_airport",
    "name": "Thumrait Air Base",
    "gps_code": "OOTH",
    "freq": "125.000",
    "Lat": 17.666,
    "Lon": 54.024601,
    "Ele": 478.5
  },
  {
    "type": "small_airport",
    "name": "Yibal Airport",
    "gps_code": "OOYB",
    "freq": "",
    "Lat": 22.2015,
    "Lon": 56.034401,
    "Ele": 0.0
  },
  {
    "type": "small_airport",
    "name": "Mukhaizna Airport",
    "gps_code": "UKH",
    "freq": "",
    "Lat": 19.386389,
    "Lon": 56.401389,
    "Ele": 144.2
  }
]