[
  {
    "type": "small_airport",
    "name": "Matata Airport",
    "gps_code": "FDBM",
    "freq": "",
    "Lat": -26.867000579833984,
    "Lon": 31.933000564575195,
    "Ele": 152.4
  },
  {
    "type": "small_airport",
    "name": "Big Bend Sugar E Airport",
    "gps_code": "FDBS",
    "freq": "",
    "Lat": -26.836111,
    "Lon": 31.92,
    "Ele": 164.9
  },
  {
    "type": "small_airport",
    "name": "Tambuti Airport",
    "gps_code": "FDBT",
    "freq": "",
    "Lat": -26.735201,
    "Lon": 31.7759,
    "Ele": 181.4
  },
  {
    "type": "small_airport",
    "name": "Lavumisa Airport",
    "gps_code": "FDGL",
    "freq": "",
    "Lat": -27.32010078430176,
    "Lon": 31.889799118041992,
    "Ele": 171.6
  },
  {
    "type": "small_airport",
    "name": "Kubuta Airport",
    "gps_code": "FDKB",
    "freq": "",
    "Lat": -26.881528,
    "Lon": 31.488889,
    "Ele": 474.0
  },
  {
    "type": "small_airport",
    "name": "Mhlume Airport",
    "gps_code": "FDMH",
    "freq": "",
    "Lat": -26.0242,
    "Lon": 31.809999,
    "Ele": 282.2
  },
  {
    "type": "medium_airport",
    "name": "Matsapha Airport",
    "gps_code": "FDMS",
    "freq": "124.900",
    "Lat": -26.528999,
    "Lon": 31.307501,
    "Ele": 632.5
  },
  {
    "type": "small_airport",
    "name": "Piggs Peak Airport",
    "gps_code": "FDNG",
    "freq": "",
    "Lat": -25.798056,
    "Lon": 31.4125,
    "Ele": 429.8
  },
  {
    "type": "small_airport",
    "name": "Nhlangano Airport",
    "gps_code": "FDNH",
    "freq": "",
    "Lat": -27.119494,
    "Lon": 31.212118,
    "Ele": 1073.5
  },
  {
    "type": "small_airport",
    "name": "Nsoko Airport",
    "gps_code": "FDNS",
    "freq": "",
    "Lat": -26.987222,
    "Lon": 31.937222,
    "Ele": 187.1
  },
  {
    "type": "large_airport",
    "name": "King Mswati III International Airport",
    "gps_code": "FDSK",
    "freq": "128.000",
    "Lat": -26.358611,
    "Lon": 31.716944,
    "Ele": 332.8
  },
  {
    "type": "small_airport",
    "name": "Simunye Airport",
    "gps_code": "FDSM",
    "freq": "",
    "Lat": -26.200001,
    "Lon": 31.933332,
    "Ele": 205.1
  },
  {
    "type": "small_airport",
    "name": "Siteki Airport",
    "gps_code": "FDST",
    "freq": "",
    "Lat": -26.471957,
    "Lon": 31.942567,
    "Ele": 676.7
  },
  {
    "type": "small_airport",
    "name": "Tambankulu Airport",
    "gps_code": "FDTM",
    "freq": "",
    "Lat": -26.106429,
    "Lon": 31.919489,
    "Ele": 247.2
  },
  {
    "type": "small_airport",
    "name": "Tshaneni Airport",
    "gps_code": "FDTS",
    "freq": "",
    "Lat": -25.983334,
    "Lon": 31.200001,
    "Ele": 310.9
  },
  {
    "type": "small_airport",
    "name": "Ubombo Ranches Airport",
    "gps_code": "FDUB",
    "freq": "",
    "Lat": -26.7708,
    "Lon": 31.936399,
    "Ele": 0.0
  }
]